sheet_sources,track_present,crash_present,flight_no,route,aircraft_no,aircraft_type,time_local_cst,time_utc,unix_time,longitude,latitude,altitude_ft,altitude_m,ground_speed_kn,ground_speed_kph,vertical_speed_fpm,vertical_speed_fpm_calc,heading_deg,squawk,fr24_match,fr24_time_delta_s,fr24_time_utc,fr24_no_position,fr24_altitude_ft,fr24_speed_kn,fr24_track_deg,fr24_vspeed_fpm,fdr_overlap,fdr_offset_s,fdr_time_abs,seconds_to_fdr_end,fdr_time_local_cst,fdr_altitude_press,fdr_altitude_press_quality,fdr_ground_spd,fdr_ground_spd_quality,fdr_heading,fdr_heading_quality,fdr_pitch_angle,fdr_pitch_angle_quality,fdr_roll_angle,fdr_roll_angle_quality,fdr_roll_rate,fdr_roll_rate_quality,fdr_absolute_roll_rate,fdr_absolute_roll_rate_quality,fdr_yaw_rate,fdr_yaw_rate_quality,fdr_accel_vert,fdr_accel_vert_quality,fdr_accel_long,fdr_accel_long_quality,fdr_accel_lat,fdr_accel_lat_quality,fdr_ctrl_col_pos_l,fdr_ctrl_col_pos_l_quality,fdr_ctrl_whl_pos_l,fdr_ctrl_whl_pos_l_quality,fdr_elevator_l,fdr_elevator_l_quality,fdr_elevator_r,fdr_elevator_r_quality,fdr_aileron_l,fdr_aileron_l_quality,fdr_aileron_r,fdr_aileron_r_quality,fdr_rudder,fdr_rudder_quality,fdr_eng1_fuel_flow,fdr_eng1_fuel_flow_quality,fdr_eng2_fuel_flow,fdr_eng2_fuel_flow_quality,fdr_eng1_n1,fdr_eng1_n1_quality,fdr_eng2_n1,fdr_eng2_n1_quality,fdr_eng1_n2_actual,fdr_eng1_n2_actual_quality,fdr_eng2_n2_actual,fdr_eng2_n2_actual_quality,fdr_eng1_cutoff_sw,fdr_eng1_cutoff_sw_quality,fdr_eng2_cutoff_sw,fdr_eng2_cutoff_sw_quality
track,1,0,MU5735,KMG-CAN,B1791,B738,2022-03-21 14:08:09,2022-03-21T06:08:09Z,1647842889.000,109.156952,23.675631,29100,8869.679688,458,848.216003,64,0,101,2101,none,,,,,,,,1,1647554687.600,288201.4,776.1391,2022-03-21 14:08:09,29106.2484,interpolated,457,interpolated,103.36,interpolated,2.64,interpolated,8.61,interpolated,-0.15592,interpolated,0.35135,interpolated,0.36216,interpolated,1.002507,interpolated,0.051,observed,-0.0142,observed,0.31,observed,2.81,observed,-4.35,observed,-3.85,observed,-2.49,observed,3.81,observed,-1,interpolated,2717.412798,interpolated,2698.587202,interpolated,84.774323,interpolated,84.88,interpolated,,missing,93.125,interpolated,RUN,nearest,RUN,nearest
track,1,0,MU5735,KMG-CAN,B1791,B738,2022-03-21 14:08:10,2022-03-21T06:08:10Z,1647842890.000,109.159172,23.675159,29100,8869.679688,458,848.216003,64,0,102,2101,none,,,,,,,,1,1647554687.600,288202.4,775.1391,2022-03-21 14:08:10,29106.7516,interpolated,457,interpolated,103.71,interpolated,2.46,interpolated,8.353096,interpolated,-0.51184,interpolated,0.3125,interpolated,0.3,interpolated,0.996454,interpolated,0.051,observed,-0.0142,observed,0.29,observed,0.35,observed,-4.35,observed,-3.9,observed,-1.9,observed,3.28,observed,-1,interpolated,2706.587202,interpolated,2693.412798,interpolated,84.88,interpolated,84.88,interpolated,93.125,interpolated,93.176463,interpolated,RUN,nearest,RUN,nearest
track,1,0,MU5735,KMG-CAN,B1791,B738,2022-03-21 14:08:11,2022-03-21T06:08:11Z,1647842891.000,109.163261,23.674391,29100,8869.679688,458,848.216003,64,0,102,2101,none,,,,,,,,1,1647554687.600,288203.4,774.1391,2022-03-21 14:08:11,29107.7516,interpolated,457,interpolated,104.06,interpolated,2.46,interpolated,7.56102,interpolated,-1.35592,interpolated,0.27365,interpolated,0.3,interpolated,0.995,interpolated,0.051,observed,-0.0121,observed,0.26,observed,-4.57,observed,-4.41,observed,-3.95,observed,-0.89,observed,2.25,observed,-1,interpolated,2720,interpolated,2698.587202,interpolated,84.88,interpolated,84.88,interpolated,93.125,interpolated,93.25,interpolated,RUN,nearest,RUN,nearest
track,1,0,MU5735,KMG-CAN,B1791,B738,2022-03-21 14:08:12,2022-03-21T06:08:12Z,1647842892.000,109.164612,23.674089,29100,8869.679688,458,848.216003,64,0,102,2101,nearest,0.072,2022-03-21 06:08:12Z.072,P,29100,458,101,64,1,1647554687.600,288204.4,773.1391,2022-03-21 14:08:12,29107.2484,interpolated,457,interpolated,104.41,interpolated,2.46,interpolated,5.898944,interpolated,-2.21184,interpolated,0.125,interpolated,0.1,interpolated,0.984446,interpolated,0.051,observed,-0.0121,observed,0.26,observed,-7.73,observed,-4.46,observed,-3.95,observed,-0.11,observed,1.44,observed,-1,interpolated,2720,interpolated,2704,interpolated,84.88,interpolated,84.88,interpolated,93.125,interpolated,93.198537,interpolated,RUN,nearest,RUN,nearest
track,1,0,MU5735,KMG-CAN,B1791,B738,2022-03-21 14:08:13,2022-03-21T06:08:13Z,1647842893.000,109.16687,23.673611,29100,8869.679688,458,848.216003,0,0,102,2101,nearest,0.928,2022-03-21 06:08:12Z.072,P,29100,458,101,64,1,1647554687.600,288205.4,772.1391,2022-03-21 14:08:13,29107.7516,interpolated,457,interpolated,104.41,interpolated,2.46,interpolated,3.527212,interpolated,-2.6,interpolated,0,interpolated,0,interpolated,0.9859,interpolated,0.051,observed,-0.0121,observed,0.24,observed,-6.33,observed,-4.46,observed,-3.95,observed,-0.37,observed,1.7,observed,-1,interpolated,2717.412798,interpolated,2704,interpolated,84.88,interpolated,84.88,interpolated,93.125,interpolated,93.125,interpolated,RUN,nearest,RUN,nearest
track,1,0,MU5735,KMG-CAN,B1791,B738,2022-03-21 14:08:14,2022-03-21T06:08:14Z,1647842894.000,109.170052,23.672979,29100,8869.679688,458,848.216003,0,0,102,2101,none,,,,,,,,1,1647554687.600,288206.4,771.1391,2022-03-21 14:08:14,29107.7516,interpolated,457.1124,interpolated,104.41,interpolated,2.46,interpolated,1.236192,interpolated,-1.84408,interpolated,-0.08615,interpolated,-0.1,interpolated,0.9859,interpolated,0.051,observed,-0.0121,observed,0.22,observed,-1.05,observed,-4.46,observed,-4,observed,-1.6,observed,2.94,observed,-1,interpolated,2706.587202,interpolated,2704,interpolated,84.88,interpolated,84.88,interpolated,93.125,interpolated,93.125,interpolated,RUN,nearest,RUN,nearest
track,1,0,MU5735,KMG-CAN,B1791,B738,2022-03-21 14:08:15,2022-03-21T06:08:15Z,1647842895.000,109.170937,23.672791,29100,8869.679688,458,848.216003,0,0,102,2101,none,,,,,,,,1,1647554687.600,288207.4,770.1391,2022-03-21 14:08:15,,missing,,missing,,missing,,missing,,missing,,missing,,missing,,missing,,missing,,missing,,missing,,missing,,missing,,missing,,missing,,missing,,missing,,missing,2721.293601,interpolated,2704,interpolated,84.88,interpolated,84.88,interpolated,,missing,93.125,interpolated,RUN,nearest,RUN,nearest
track,1,0,MU5735,KMG-CAN,B1791,B738,2022-03-21 14:08:16,2022-03-21T06:08:16Z,1647842896.000,109.17318,23.672331,29100,8869.679688,459,850.067993,0,0,102,2101,none,,,,,,,,1,1647554687.600,288208.4,769.1391,2022-03-21 14:08:16,,missing,,missing,,missing,,missing,,missing,,missing,,missing,,missing,,missing,,missing,,missing,,missing,,missing,,missing,,missing,,missing,,missing,,missing,2729.293601,interpolated,2704,interpolated,84.88,interpolated,84.88,interpolated,,missing,93.125,interpolated,,missing,,missing
track,1,0,MU5735,KMG-CAN,B1791,B738,2022-03-21 14:08:17,2022-03-21T06:08:17Z,1647842897.000,109.175011,23.67197,29100,8869.679688,459,850.067993,0,0,102,2101,none,,,,,,,,1,1647554687.600,288209.4,768.1391,2022-03-21 14:08:17,29107.2484,interpolated,457.5,interpolated,104.41,interpolated,2.46,interpolated,-0.53,interpolated,0.1,interpolated,-0.125,interpolated,-0.1,interpolated,0.991107,interpolated,0.051,observed,-0.0142,observed,0.22,observed,3.87,observed,-4.46,observed,-4.05,observed,-2.69,observed,4,observed,-1,interpolated,2736,interpolated,2704,interpolated,84.88,interpolated,84.88,interpolated,,missing,93.125,interpolated,RUN,nearest,RUN,nearest
track,1,0,MU5735,KMG-CAN,B1791,B738,2022-03-21 14:08:18,2022-03-21T06:08:18Z,1647842898.000,109.177261,23.67153,29100,8869.679688,459,850.067993,0,0,102,2101,nearest,0.064,2022-03-21 06:08:18Z.064,P,29100,459,102,0,1,1647554687.600,288210.4,767.1391,2022-03-21 14:08:18,29106.2484,interpolated,457.5,interpolated,104.41,interpolated,2.46,interpolated,-0.35,interpolated,0.2,interpolated,-0.0625,interpolated,-0.1,interpolated,0.989654,interpolated,0.051,observed,-0.0142,observed,0.18,observed,3.87,observed,-4.46,observed,-4.1,observed,-2.74,observed,4.05,observed,-1,interpolated,2728.238395,interpolated,2704,interpolated,84.855677,interpolated,84.88,interpolated,93.125,interpolated,93.125,interpolated,RUN,nearest,RUN,nearest
track,1,0,MU5735,KMG-CAN,B1791,B738,2022-03-21 14:08:19,2022-03-21T06:08:19Z,1647842899.000,109.18,23.670971,29100,8869.679688,459,850.067993,0,0,102,2101,nearest,0.936,2022-03-21 06:08:18Z.064,P,29100,459,102,0,1,1647554687.600,288211.4,766.1391,2022-03-21 14:08:19,29107,interpolated,457.5,interpolated,104.41,interpolated,2.46,interpolated,-0.18,interpolated,0.1,interpolated,-0.0625,interpolated,-0.1,interpolated,0.985054,interpolated,0.049,observed,-0.0162,observed,0.15,observed,3.87,observed,-4.51,observed,-4.15,observed,-2.69,observed,4,observed,-1,interpolated,2688,interpolated,2693.412798,interpolated,84.703225,interpolated,84.790677,interpolated,93.011037,interpolated,93.073537,interpolated,RUN,nearest,RUN,nearest
track,1,0,MU5735,KMG-CAN,B1791,B738,2022-03-21 14:08:20,2022-03-21T06:08:20Z,1647842900.000,109.182228,23.6705,29100,8869.679688,459,850.067993,0,0,102,2101,none,,,,,,,,1,1647554687.600,288212.4,765.1391,2022-03-21 14:08:20,29106,interpolated,457.5,interpolated,104.41,interpolated,2.46,interpolated,0,interpolated,0,interpolated,-0.0625,interpolated,-0.1,interpolated,0.977546,interpolated,0.049,observed,-0.0142,observed,0.15,observed,3.87,observed,-4.56,observed,-4.15,observed,-2.74,observed,4.05,observed,-1,interpolated,2688,interpolated,2677.412798,interpolated,84.5,interpolated,84.667548,interpolated,93,interpolated,93,interpolated,RUN,nearest,RUN,nearest
track,1,0,MU5735,KMG-CAN,B1791,B738,2022-03-21 14:08:21,2022-03-21T06:08:21Z,1647842901.000,109.184982,23.67,29100,8869.679688,459,850.067993,0,0,102,2101,nearest,0.362,2022-03-21 06:08:21Z.362,P,29100,459,102,0,1,1647554687.600,288213.4,764.1391,2022-03-21 14:08:21,29105,interpolated,458,interpolated,104.41,interpolated,2.46,interpolated,0,interpolated,0.2,interpolated,-0.0625,interpolated,-0.1,interpolated,0.985054,interpolated,0.049,observed,-0.0142,observed,0.15,observed,3.87,observed,-4.51,observed,-4.15,observed,-2.69,observed,4,observed,-1,interpolated,2688,interpolated,2672,interpolated,84.5,interpolated,84.63,interpolated,92.886037,interpolated,93,interpolated,RUN,nearest,RUN,nearest
track,1,0,MU5735,KMG-CAN,B1791,B738,2022-03-21 14:08:25,2022-03-21T06:08:25Z,1647842905.000,109.194458,23.668091,29100,8869.679688,459,850.067993,0,0,102,2101,none,,,,,,,,1,1647554687.600,288217.4,760.1391,2022-03-21 14:08:25,29101,interpolated,458,interpolated,104.06,interpolated,2.29,interpolated,0.35,interpolated,0,interpolated,-0.0625,interpolated,-0.1,interpolated,0.979846,interpolated,0.0469,observed,-0.0142,observed,0.53,observed,3.16,observed,-4,observed,-3.54,observed,-2.59,observed,3.91,observed,-1,interpolated,2688,interpolated,2656,interpolated,84.402452,interpolated,84.5,interpolated,,missing,92.875,interpolated,RUN,nearest,RUN,nearest
track,1,0,MU5735,KMG-CAN,B1791,B738,2022-03-21 14:08:26,2022-03-21T06:08:26Z,1647842906.000,109.195343,23.6679,29100,8869.679688,460,851.919983,-128,0,102,2101,none,,,,,,,,1,1647554687.600,288218.4,759.1391,2022-03-21 14:08:26,29099.7516,interpolated,458,interpolated,104.06,interpolated,2.29,interpolated,0.35,interpolated,-0.15592,interpolated,-0.0625,interpolated,-0.1,interpolated,0.9996,interpolated,0.0469,observed,-0.0182,observed,0.57,observed,3.52,observed,-3.85,observed,-3.54,observed,-2.64,observed,3.95,observed,-1,interpolated,2688,interpolated,2666.587202,interpolated,84.477548,interpolated,84.5,interpolated,92.875,interpolated,92.875,interpolated,RUN,nearest,RUN,nearest
track,1,0,MU5735,KMG-CAN,B1791,B738,2022-03-21 14:08:27,2022-03-21T06:08:27Z,1647842907.000,109.19809,23.667339,29100,8869.679688,460,851.919983,-128,0,102,2101,none,,,,,,,,1,1647554687.600,288219.4,758.1391,2022-03-21 14:08:27,29098,interpolated,458,interpolated,104.06,interpolated,2.29,interpolated,0.18,interpolated,-0.14408,interpolated,0,interpolated,0,interpolated,1.003593,interpolated,0.049,observed,-0.0182,observed,0.57,observed,4.22,observed,-3.85,observed,-3.49,observed,-2.74,observed,4.1,observed,-1,interpolated,2688,interpolated,2672,interpolated,84.38,interpolated,84.5,interpolated,92.875,interpolated,92.875,interpolated,RUN,nearest,RUN,nearest
track,1,0,MU5735,KMG-CAN,B1791,B738,2022-03-21 14:08:28,2022-03-21T06:08:28Z,1647842908.000,109.199898,23.666969,29100,8869.679688,460,851.919983,-64,0,102,2101,nearest,0.258,2022-03-21 06:08:28Z.258,P,29100,460,102,-64,1,1647554687.600,288220.4,757.1391,2022-03-21 14:08:28,29097.7516,interpolated,458.5,interpolated,104.06,interpolated,2.29,interpolated,0.18,interpolated,0,interpolated,-0.0625,interpolated,-0.1,interpolated,1.007346,interpolated,0.049,observed,-0.0162,observed,0.57,observed,4.22,observed,-3.85,observed,-3.49,observed,-2.74,observed,4.1,observed,-1,interpolated,2690.587202,interpolated,2672,interpolated,84.38,interpolated,84.5,interpolated,92.875,interpolated,92.875,interpolated,RUN,nearest,RUN,nearest
track,1,0,MU5735,KMG-CAN,B1791,B738,2022-03-21 14:08:29,2022-03-21T06:08:29Z,1647842909.000,109.202599,23.66646,29100,8869.679688,460,851.919983,-64,0,102,2101,nearest,0.742,2022-03-21 06:08:28Z.258,P,29100,460,102,-64,1,1647554687.600,288221.4,756.1391,2022-03-21 14:08:29,29096,interpolated,458.5,interpolated,104.06,interpolated,2.29,interpolated,0.18,interpolated,0.05592,interpolated,0,interpolated,0,interpolated,1.0111,interpolated,0.049,observed,-0.0162,observed,0.55,observed,3.87,observed,-3.85,observed,-3.54,observed,-2.74,observed,4.05,observed,-1,interpolated,2701.412798,interpolated,2672,interpolated,84.38,interpolated,84.5,interpolated,92.875,interpolated,92.875,interpolated,RUN,nearest,RUN,nearest
track,1,0,MU5735,KMG-CAN,B1791,B738,2022-03-21 14:08:30,2022-03-21T06:08:30Z,1647842910.000,109.204857,23.66597,29100,8869.679688,460,851.919983,0,0,102,2101,none,,,,,,,,1,1647554687.600,288222.4,755.1391,2022-03-21 14:08:30,29095,interpolated,458.5,interpolated,104.06,interpolated,2.46,interpolated,0.18,interpolated,-0.1,interpolated,-0.02365,interpolated,-0.03784,interpolated,1.003354,interpolated,0.0469,observed,-0.0182,observed,0.53,observed,3.87,observed,-3.9,observed,-3.59,observed,-2.74,observed,4.05,observed,-1,interpolated,2688,interpolated,2672,interpolated,84.38,interpolated,84.5,interpolated,92.875,interpolated,92.875,interpolated,RUN,nearest,RUN,nearest
track,1,0,MU5735,KMG-CAN,B1791,B738,2022-03-21 14:08:31,2022-03-21T06:08:31Z,1647842911.000,109.208038,23.66534,29100,8869.679688,460,851.919983,64,0,102,2101,nearest,0.884,2022-03-21 06:08:31Z.884,P,29100,460,102,0,1,1647554687.600,288223.4,754.1391,2022-03-21 14:08:31,,missing,,missing,,missing,,missing,,missing,,missing,,missing,,missing,,missing,,missing,,missing,,missing,,missing,,missing,,missing,,missing,,missing,,missing,2688,interpolated,2672,interpolated,84.38,interpolated,84.5,interpolated,,missing,92.875,interpolated,RUN,nearest,RUN,nearest
track,1,0,MU5735,KMG-CAN,B1791,B738,2022-03-21 14:08:32,2022-03-21T06:08:32Z,1647842912.000,109.210793,23.664829,29100,8869.679688,460,851.919983,64,0,102,2101,nearest,0.116,2022-03-21 06:08:31Z.884,P,29100,460,102,0,1,1647554687.600,288224.4,753.1391,2022-03-21 14:08:32,,missing,,missing,,missing,,missing,,missing,,missing,,missing,,missing,,missing,,missing,,missing,,missing,,missing,,missing,,missing,,missing,,missing,,missing,2688,interpolated,2672,interpolated,84.38,interpolated,84.5,interpolated,,missing,92.875,interpolated,,missing,,missing
track,1,0,MU5735,KMG-CAN,B1791,B738,2022-03-21 14:08:33,2022-03-21T06:08:33Z,1647842913.000,109.213051,23.66437,29100,8869.679688,460,851.919983,64,0,102,2101,none,,,,,,,,1,1647554687.600,288225.4,752.1391,2022-03-21 14:08:33,29096.2484,interpolated,458.5,interpolated,104.06,interpolated,2.46,interpolated,0.35,interpolated,0.1,interpolated,0,interpolated,0,interpolated,0.986746,interpolated,0.0469,observed,-0.0162,observed,0.48,observed,3.87,observed,-4.05,observed,-3.59,observed,-2.69,observed,4,observed,-1,interpolated,2688,interpolated,2672,interpolated,84.38,interpolated,84.417548,interpolated,,missing,92.875,interpolated,RUN,nearest,RUN,nearest
track,1,0,MU5735,KMG-CAN,B1791,B738,2022-03-21 14:08:35,2022-03-21T06:08:35Z,1647842915.000,109.217583,23.66345,29100,8869.679688,460,851.919983,64,0,102,2101,none,,,,,,,,1,1647554687.600,288227.4,750.1391,2022-03-21 14:08:35,29098,interpolated,458.5,interpolated,104.41,interpolated,2.46,interpolated,0.53,interpolated,-0.1,interpolated,0,interpolated,0,interpolated,0.9836,interpolated,0.0449,observed,-0.0182,observed,0.48,observed,3.52,observed,-4.05,observed,-3.64,observed,-2.69,observed,4,observed,-1,interpolated,2685.412798,interpolated,2656,interpolated,84.355677,interpolated,84.38,interpolated,92.875,interpolated,92.875,interpolated,RUN,nearest,RUN,nearest
track,1,0,MU5735,KMG-CAN,B1791,B738,2022-03-21 14:08:36,2022-03-21T06:08:36Z,1647842916.000,109.218918,23.6632,29100,8869.679688,460,851.919983,64,0,102,2101,none,,,,,,,,1,1647554687.600,288228.4,749.1391,2022-03-21 14:08:36,29099,interpolated,458.5,interpolated,104.41,interpolated,2.46,interpolated,0.53,interpolated,0.04408,interpolated,-0.0625,interpolated,-0.1,interpolated,0.99361,interpolated,0.0469,observed,-0.0162,observed,0.48,observed,3.16,observed,-4.05,observed,-3.59,observed,-2.59,observed,3.95,observed,-1,interpolated,2672,interpolated,2656,interpolated,84.25,interpolated,84.38,interpolated,92.761037,interpolated,92.823537,interpolated,RUN,nearest,RUN,nearest
track,1,0,MU5735,KMG-CAN,B1791,B738,2022-03-21 14:08:37,2022-03-21T06:08:37Z,1647842917.000,109.221191,23.66272,29100,8869.679688,460,851.919983,64,0,102,2101,none,,,,,,,,1,1647554687.600,288229.4,748.1391,2022-03-21 14:08:37,29100,interpolated,458.5,interpolated,104.41,interpolated,2.46,interpolated,0.443096,interpolated,-0.2,interpolated,0,interpolated,0,interpolated,0.995,interpolated,0.0469,observed,-0.0182,observed,0.48,observed,3.87,observed,-4.05,observed,-3.64,observed,-2.69,observed,4,observed,-1,interpolated,2672,interpolated,2656,interpolated,84.25,interpolated,84.290677,interpolated,92.75,interpolated,92.75,interpolated,RUN,nearest,RUN,nearest
track,1,0,MU5735,KMG-CAN,B1791,B738,2022-03-21 14:08:38,2022-03-21T06:08:38Z,1647842918.000,109.223892,23.66222,29100,8869.679688,460,851.919983,64,0,102,2101,none,,,,,,,,1,1647554687.600,288230.4,747.1391,2022-03-21 14:08:38,29099.496801,interpolated,458.5,interpolated,104.41,interpolated,2.29,interpolated,0.35,interpolated,-0.1,interpolated,0,interpolated,0,interpolated,0.984446,interpolated,0.0449,observed,-0.0162,observed,0.48,observed,3.87,observed,-3.95,observed,-3.64,observed,-2.74,observed,4,observed,-1,interpolated,,missing,2645.412798,interpolated,,missing,84.25,interpolated,92.75,interpolated,92.75,interpolated,RUN,nearest,RUN,nearest
track,1,0,MU5735,KMG-CAN,B1791,B738,2022-03-21 14:08:39,2022-03-21T06:08:39Z,1647842919.000,109.226181,23.66176,29100,8869.679688,460,851.919983,64,0,102,2101,nearest,0.484,2022-03-21 06:08:39Z.484,P,29100,460,102,64,1,1647554687.600,288231.4,746.1391,2022-03-21 14:08:39,,missing,,missing,,missing,,missing,,missing,,missing,,missing,,missing,,missing,,missing,,missing,,missing,,missing,,missing,,missing,,missing,,missing,,missing,,missing,,missing,,missing,,missing,,missing,,missing,RUN,nearest,RUN,nearest
track,1,0,MU5735,KMG-CAN,B1791,B738,2022-03-21 14:08:40,2022-03-21T06:08:40Z,1647842920.000,109.228409,23.661301,29100,8869.679688,460,851.919983,64,0,102,2101,nearest,0.516,2022-03-21 06:08:39Z.484,P,29100,460,102,64,1,1647554687.600,288232.4,745.1391,2022-03-21 14:08:40,,missing,,missing,,missing,,missing,,missing,,missing,,missing,,missing,,missing,,missing,,missing,,missing,,missing,,missing,,missing,,missing,,missing,,missing,,missing,,missing,,missing,,missing,,missing,,missing,,missing,,missing
track,1,0,MU5735,KMG-CAN,B1791,B738,2022-03-21 14:08:41,2022-03-21T06:08:41Z,1647842921.000,109.23069,23.66083,29100,8869.679688,460,851.919983,64,0,102,2101,none,,,,,,,,1,1647554687.600,288233.4,744.1391,2022-03-21 14:08:41,29103,interpolated,458.5,interpolated,104.41,interpolated,2.46,interpolated,0.35,interpolated,0.1,interpolated,0,interpolated,0,interpolated,0.9813,interpolated,0.0449,observed,-0.0162,observed,0.46,observed,3.87,observed,-4,observed,-3.64,observed,-2.74,observed,4.05,observed,-1,interpolated,2656,interpolated,,missing,84.13,interpolated,,missing,,missing,,missing,RUN,nearest,RUN,nearest
track,1,0,MU5735,KMG-CAN,B1791,B738,2022-03-21 14:08:44,2022-03-21T06:08:44Z,1647842924.000,109.23613,23.65976,29100,8869.679688,460,851.919983,0,0,102,2101,nearest,0.798,2022-03-21 06:08:44Z.798,P,29100,460,102,0,1,1647554687.600,288236.4,741.1391,2022-03-21 14:08:44,29104.496801,interpolated,458.5,interpolated,104.41,interpolated,2.29,interpolated,0.7,interpolated,0.1,interpolated,0,interpolated,0,interpolated,0.9767,interpolated,0.0449,observed,-0.0142,observed,0.48,observed,3.16,observed,-4.05,observed,-3.64,observed,-2.59,observed,3.86,observed,-1,interpolated,2656,interpolated,2640,interpolated,84.13,interpolated,84.13,interpolated,92.625,interpolated,92.625,interpolated,RUN,nearest,RUN,nearest
track,1,0,MU5735,KMG-CAN,B1791,B738,2022-03-21 14:08:45,2022-03-21T06:08:45Z,1647842925.000,109.238869,23.659241,29100,8869.679688,460,851.919983,0,0,102,2101,nearest,0.202,2022-03-21 06:08:44Z.798,P,29100,460,102,0,1,1647554687.600,288237.4,740.1391,2022-03-21 14:08:45,29104.7516,interpolated,458.5,interpolated,104.41,interpolated,2.29,interpolated,0.7,interpolated,-0.1,interpolated,0,interpolated,0,interpolated,0.9813,interpolated,0.0449,observed,-0.0162,observed,0.48,observed,3.16,observed,-4.05,observed,-3.64,observed,-2.59,observed,3.86,observed,-1,interpolated,2650.825597,interpolated,2629.412798,interpolated,84.083225,interpolated,84.040677,interpolated,92.625,interpolated,92.625,interpolated,RUN,nearest,RUN,nearest
track,1,0,MU5735,KMG-CAN,B1791,B738,2022-03-21 14:08:46,2022-03-21T06:08:46Z,1647842926.000,109.241127,23.658779,29100,8869.679688,460,851.919983,0,0,102,2101,none,,,,,,,,1,1647554687.600,288238.4,739.1391,2022-03-21 14:08:46,29104.2484,interpolated,458.5,interpolated,104.41,interpolated,2.29,interpolated,0.7,interpolated,-0.04408,interpolated,-0.02365,interpolated,-0.03784,interpolated,0.9836,interpolated,0.0449,observed,-0.0162,observed,0.48,observed,3.16,observed,-4.05,observed,-3.64,observed,-2.59,observed,3.86,observed,-1,interpolated,2626.587202,interpolated,2613.412798,interpolated,83.88,interpolated,83.917548,interpolated,92.625,interpolated,92.573537,interpolated,RUN,nearest,RUN,nearest
track,1,0,MU5735,KMG-CAN,B1791,B738,2022-03-21 14:08:47,2022-03-21T06:08:47Z,1647842927.000,109.243378,23.65831,29100,8869.679688,460,851.919983,0,0,102,2101,none,,,,,,,,1,1647554687.600,288239.4,738.1391,2022-03-21 14:08:47,,missing,,missing,,missing,,missing,,missing,,missing,,missing,,missing,,missing,,missing,,missing,,missing,,missing,,missing,,missing,,missing,,missing,,missing,2640,interpolated,2608,interpolated,83.88,interpolated,83.88,interpolated,,missing,92.5,interpolated,RUN,nearest,RUN,nearest
track,1,0,MU5735,KMG-CAN,B1791,B738,2022-03-21 14:08:48,2022-03-21T06:08:48Z,1647842928.000,109.245201,23.65794,29100,8869.679688,460,851.919983,-64,0,102,2101,none,,,,,,,,1,1647554687.600,288240.4,737.1391,2022-03-21 14:08:48,,missing,,missing,,missing,,missing,,missing,,missing,,missing,,missing,,missing,,missing,,missing,,missing,,missing,,missing,,missing,,missing,,missing,,missing,2640,interpolated,2608,interpolated,83.88,interpolated,83.88,interpolated,,missing,92.5,interpolated,,missing,,missing
track,1,0,MU5735,KMG-CAN,B1791,B738,2022-03-21 14:08:49,2022-03-21T06:08:49Z,1647842929.000,109.24749,23.657499,29100,8869.679688,460,851.919983,-64,0,102,2101,none,,,,,,,,1,1647554687.600,288241.4,736.1391,2022-03-21 14:08:49,29103,interpolated,458.5,interpolated,104.41,interpolated,2.29,interpolated,0.53,interpolated,-0.1,interpolated,0,interpolated,0,interpolated,0.985054,interpolated,0.0449,observed,-0.0162,observed,0.53,observed,3.52,observed,-4,observed,-3.54,observed,-2.59,observed,3.95,observed,-1,interpolated,2637.412798,interpolated,2608,interpolated,83.855677,interpolated,83.790677,interpolated,,missing,92.5,interpolated,RUN,nearest,RUN,nearest
track,1,0,MU5735,KMG-CAN,B1791,B738,2022-03-21 14:08:50,2022-03-21T06:08:50Z,1647842930.000,109.250641,23.65687,29100,8869.679688,460,851.919983,-64,0,102,2101,nearest,0.018,2022-03-21 06:08:50Z.018,P,29100,460,102,-64,1,1647554687.600,288242.4,735.1391,2022-03-21 14:08:50,29102,interpolated,458.5,interpolated,104.41,interpolated,2.29,interpolated,0.53,interpolated,0,interpolated,0,interpolated,0,interpolated,0.984446,interpolated,0.0449,observed,-0.0162,observed,0.55,observed,3.52,observed,-3.85,observed,-3.54,observed,-2.59,observed,3.95,observed,-1,interpolated,2624,interpolated,2597.412798,interpolated,83.75,interpolated,83.75,interpolated,92.5,interpolated,92.5,interpolated,RUN,nearest,RUN,nearest
track,1,0,MU5735,KMG-CAN,B1791,B738,2022-03-21 14:08:51,2022-03-21T06:08:51Z,1647842931.000,109.25293,23.656401,29100,8869.679688,460,851.919983,-64,0,102,2101,nearest,0.982,2022-03-21 06:08:50Z.018,P,29100,460,102,-64,1,1647554687.600,288243.4,734.1391,2022-03-21 14:08:51,29101,interpolated,458.5,interpolated,104.41,interpolated,2.29,interpolated,0.7,interpolated,0,interpolated,0,interpolated,0,interpolated,0.991954,interpolated,0.0449,observed,-0.0142,observed,0.55,observed,3.16,observed,-3.9,observed,-3.54,observed,-2.59,observed,3.91,observed,-1,interpolated,2624,interpolated,2592,interpolated,83.75,interpolated,83.75,interpolated,92.5,interpolated,92.5,interpolated,RUN,nearest,RUN,nearest
track,1,0,MU5735,KMG-CAN,B1791,B738,2022-03-21 14:08:52,2022-03-21T06:08:52Z,1647842932.000,109.254272,23.65617,29100,8869.679688,460,851.919983,-64,0,102,2101,none,,,,,,,,1,1647554687.600,288244.4,733.1391,2022-03-21 14:08:52,29100.496801,interpolated,458.5,interpolated,104.41,interpolated,2.29,interpolated,0.7,interpolated,0,interpolated,0,interpolated,0,interpolated,0.9905,interpolated,0.0449,observed,-0.0162,observed,0.55,observed,3.16,observed,-3.9,observed,-3.54,observed,-2.54,observed,3.86,observed,-1,interpolated,2624,interpolated,2592,interpolated,83.75,interpolated,83.667548,interpolated,92.5,interpolated,92.5,interpolated,RUN,nearest,RUN,nearest
track,1,0,MU5735,KMG-CAN,B1791,B738,2022-03-21 14:08:53,2022-03-21T06:08:53Z,1647842933.000,109.256538,23.65572,29100,8869.679688,460,851.919983,-64,0,102,2101,nearest,0.868,2022-03-21 06:08:53Z.868,P,29100,460,102,-64,1,1647554687.600,288245.4,732.1391,2022-03-21 14:08:53,29100.503199,interpolated,458.5,interpolated,104.41,interpolated,2.46,interpolated,0.7,interpolated,-0.1,interpolated,0,interpolated,0,interpolated,0.9928,interpolated,0.0449,observed,-0.0162,observed,0.53,observed,3.16,observed,-3.9,observed,-3.54,observed,-2.54,observed,3.86,observed,-1,interpolated,2621.412798,interpolated,2592,interpolated,83.727548,interpolated,83.63,interpolated,92.5,interpolated,92.448537,interpolated,RUN,nearest,RUN,nearest
track,1,0,MU5735,KMG-CAN,B1791,B738,2022-03-21 14:08:54,2022-03-21T06:08:54Z,1647842934.000,109.259712,23.65505,29100,8869.679688,460,851.919983,-64,0,102,2101,nearest,0.132,2022-03-21 06:08:53Z.868,P,29100,460,102,-64,1,1647554687.600,288246.4,731.1391,2022-03-21 14:08:54,29099,interpolated,458.5,interpolated,104.41,interpolated,2.46,interpolated,0.617924,interpolated,-0.1,interpolated,0,interpolated,0,interpolated,0.9905,interpolated,0.0449,observed,-0.0162,observed,0.53,observed,3.16,observed,-3.9,observed,-3.54,observed,-2.54,observed,3.91,observed,-1,interpolated,2608,interpolated,2581.412798,interpolated,83.63,interpolated,83.63,interpolated,92.386037,interpolated,92.375,interpolated,RUN,nearest,RUN,nearest
track,1,0,MU5735,KMG-CAN,B1791,B738,2022-03-21 14:08:55,2022-03-21T06:08:55Z,1647842935.000,109.262398,23.654539,29100,8869.679688,460,851.919983,-64,0,102,2101,none,,,,,,,,1,1647554687.600,288247.4,730.1391,2022-03-21 14:08:55,,missing,,missing,,missing,,missing,,missing,,missing,,missing,,missing,,missing,,missing,,missing,,missing,,missing,,missing,,missing,,missing,,missing,,missing,2606.706399,interpolated,2576,interpolated,83.617838,interpolated,83.585338,interpolated,,missing,92.375,interpolated,RUN,nearest,RUN,nearest
track,1,0,MU5735,KMG-CAN,B1791,B738,2022-03-21 14:08:57,2022-03-21T06:08:57Z,1647842937.000,109.26696,23.65361,29100,8869.679688,460,851.919983,-64,0,102,2101,none,,,,,,,,1,1647554687.600,288249.4,728.1391,2022-03-21 14:08:57,29097,interpolated,458.5,interpolated,104.77,interpolated,2.46,interpolated,0.7,interpolated,0.1,interpolated,0,interpolated,0,interpolated,0.987593,interpolated,0.0449,observed,-0.0162,observed,0.53,observed,2.81,observed,-3.9,observed,-3.54,observed,-2.54,observed,3.86,observed,-1,interpolated,2592,interpolated,2576,interpolated,83.5,interpolated,83.5,interpolated,,missing,92.323537,interpolated,RUN,nearest,RUN,nearest
track,1,0,MU5735,KMG-CAN,B1791,B738,2022-03-21 14:08:58,2022-03-21T06:08:58Z,1647842938.000,109.267838,23.653419,29100,8869.679688,460,851.919983,0,0,102,2101,none,,,,,,,,1,1647554687.600,288250.4,727.1391,2022-03-21 14:08:58,29097,interpolated,458.5,interpolated,104.77,interpolated,2.46,interpolated,0.7,interpolated,0,interpolated,0,interpolated,0,interpolated,0.987354,interpolated,0.0449,observed,-0.0162,observed,0.55,observed,2.81,observed,-3.9,observed,-3.59,observed,-2.49,observed,3.86,observed,-1,interpolated,2592,interpolated,2576,interpolated,83.477548,interpolated,83.417548,interpolated,92.375,interpolated,92.25,interpolated,RUN,nearest,RUN,nearest
track,1,0,MU5735,KMG-CAN,B1791,B738,2022-03-21 14:08:59,2022-03-21T06:08:59Z,1647842939.000,109.270119,23.652969,29100,8869.679688,460,851.919983,0,0,102,2101,none,,,,,,,,1,1647554687.600,288251.4,726.1391,2022-03-21 14:08:59,29095.7516,interpolated,458.5,interpolated,104.77,interpolated,2.46,interpolated,0.7,interpolated,-0.1,interpolated,-0.02365,interpolated,-0.03784,interpolated,0.986139,interpolated,0.0428,observed,-0.0162,observed,0.53,observed,2.81,observed,-3.95,observed,-3.54,observed,-2.49,observed,3.81,observed,-1,interpolated,2592,interpolated,2565.412798,interpolated,83.38,interpolated,83.38,interpolated,92.375,interpolated,92.25,interpolated,RUN,nearest,RUN,nearest
track,1,0,MU5735,KMG-CAN,B1791,B738,2022-03-21 14:09:00,2022-03-21T06:09:00Z,1647842940.000,109.2724,23.65254,29100,8869.679688,460,851.919983,0,0,102,2101,none,,,,,,,,1,1647554687.600,288252.4,725.1391,2022-03-21 14:09:00,29095.7516,interpolated,458,interpolated,104.77,interpolated,2.46,interpolated,0.7,interpolated,-0.1,interpolated,0,interpolated,0,interpolated,0.989654,interpolated,0.0449,observed,-0.0142,observed,0.55,observed,2.81,observed,-3.95,observed,-3.59,observed,-2.49,observed,3.81,observed,-1,interpolated,2589.412798,interpolated,2560,interpolated,83.38,interpolated,83.38,interpolated,92.261037,interpolated,92.25,interpolated,RUN,nearest,RUN,nearest
track,1,0,MU5735,KMG-CAN,B1791,B738,2022-03-21 14:09:01,2022-03-21T06:09:01Z,1647842941.000,109.274651,23.65205,29100,8869.679688,460,851.919983,0,0,102,2101,none,,,,,,,,1,1647554687.600,288253.4,724.1391,2022-03-21 14:09:01,29095,interpolated,458,interpolated,104.77,interpolated,2.46,interpolated,0.7,interpolated,-0.1,interpolated,-0.0625,interpolated,-0.1,interpolated,0.991954,interpolated,0.0449,observed,-0.0162,observed,0.55,observed,3.16,observed,-3.9,observed,-3.59,observed,-2.54,observed,3.86,observed,-1,interpolated,2578.587202,interpolated,2560,interpolated,83.38,interpolated,83.38,interpolated,92.25,interpolated,92.25,interpolated,RUN,nearest,RUN,nearest
track,1,0,MU5735,KMG-CAN,B1791,B738,2022-03-21 14:09:03,2022-03-21T06:09:03Z,1647842943.000,109.27961,23.651051,29100,8869.679688,459,850.067993,0,0,102,2101,none,,,,,,,,1,1647554687.600,288255.4,722.1391,2022-03-21 14:09:03,,missing,,missing,,missing,,missing,,missing,,missing,,missing,,missing,,missing,,missing,,missing,,missing,,missing,,missing,,missing,,missing,,missing,,missing,2574.706399,interpolated,2570.706399,interpolated,83.25,interpolated,83.25,interpolated,,missing,92.224269,interpolated,RUN,nearest,RUN,nearest
track,1,0,MU5735,KMG-CAN,B1791,B738,2022-03-21 14:09:04,2022-03-21T06:09:04Z,1647842944.000,109.281868,23.650591,29100,8869.679688,459,850.067993,0,0,102,2101,none,,,,,,,,1,1647554687.600,288256.4,721.1391,2022-03-21 14:09:04,,missing,,missing,,missing,,missing,,missing,,missing,,missing,,missing,,missing,,missing,,missing,,missing,,missing,,missing,,missing,,missing,,missing,,missing,2566.706399,interpolated,2562.706399,interpolated,83.25,interpolated,83.25,interpolated,,missing,92.161769,interpolated,,missing,,missing
track,1,0,MU5735,KMG-CAN,B1791,B738,2022-03-21 14:09:05,2022-03-21T06:09:05Z,1647842945.000,109.283699,23.650221,29100,8869.679688,459,850.067993,0,0,102,2101,none,,,,,,,,1,1647554687.600,288257.4,720.1391,2022-03-21 14:09:05,29095.2484,interpolated,458,interpolated,104.77,interpolated,2.46,interpolated,0.7,interpolated,0,interpolated,-0.0625,interpolated,-0.1,interpolated,0.99419,interpolated,0.0449,observed,-0.0162,observed,0.53,observed,2.81,observed,-3.95,observed,-3.54,observed,-2.49,observed,3.81,observed,-1,interpolated,2562.587202,interpolated,2549.412798,interpolated,83.227548,interpolated,83.167548,interpolated,,missing,92.125,interpolated,RUN,nearest,RUN,nearest
track,1,0,MU5735,KMG-CAN,B1791,B738,2022-03-21 14:09:06,2022-03-21T06:09:06Z,1647842946.000,109.2864,23.64967,29100,8869.679688,459,850.067993,0,0,102,2101,none,,,,,,,,1,1647554687.600,288258.4,719.1391,2022-03-21 14:09:06,29095.2484,interpolated,458,interpolated,104.77,interpolated,2.46,interpolated,0.7,interpolated,0,interpolated,-0.0625,interpolated,-0.1,interpolated,0.9882,interpolated,0.0428,observed,-0.0142,observed,0.55,observed,2.81,observed,-3.9,observed,-3.54,observed,-2.44,observed,3.81,observed,-1,interpolated,2576,interpolated,2554.587202,interpolated,83.13,interpolated,83.13,interpolated,92.25,interpolated,92.125,interpolated,RUN,nearest,RUN,nearest
track,1,0,MU5735,KMG-CAN,B1791,B738,2022-03-21 14:09:07,2022-03-21T06:09:07Z,1647842947.000,109.288231,23.649309,29100,8869.679688,459,850.067993,0,0,102,2101,none,,,,,,,,1,1647554687.600,288259.4,718.1391,2022-03-21 14:09:07,29096.7516,interpolated,457.5,interpolated,104.77,interpolated,2.46,interpolated,0.7,interpolated,-0.05592,interpolated,-0.0625,interpolated,-0.1,interpolated,0.991346,interpolated,0.0428,observed,-0.0142,observed,0.53,observed,2.81,observed,-4,observed,-3.59,observed,-2.44,observed,3.76,observed,-1,interpolated,2573.412798,interpolated,2549.412798,interpolated,83.13,interpolated,83.13,interpolated,92.25,interpolated,92.125,interpolated,RUN,nearest,RUN,nearest
track,1,0,MU5735,KMG-CAN,B1791,B738,2022-03-21 14:09:08,2022-03-21T06:09:08Z,1647842948.000,109.290916,23.6488,29100,8869.679688,459,850.067993,0,0,102,2101,none,,,,,,,,1,1647554687.600,288260.4,717.1391,2022-03-21 14:09:08,29096,interpolated,457.5,interpolated,104.77,interpolated,2.46,interpolated,0.7,interpolated,-0.1,interpolated,-0.02365,interpolated,-0.03784,interpolated,0.986746,interpolated,0.0428,observed,-0.0162,observed,0.53,observed,2.81,observed,-3.9,observed,-3.64,observed,-2.49,observed,3.81,observed,-1,interpolated,2560,interpolated,2544,interpolated,83.13,interpolated,83.13,interpolated,92.136037,interpolated,92.125,interpolated,RUN,nearest,RUN,nearest
track,1,0,MU5735,KMG-CAN,B1791,B738,2022-03-21 14:09:09,2022-03-21T06:09:09Z,1647842949.000,109.292763,23.64839,29100,8869.679688,459,850.067993,64,0,102,2101,none,,,,,,,,1,1647554687.600,288261.4,716.1391,2022-03-21 14:09:09,29097,interpolated,457.5,interpolated,104.77,interpolated,2.46,interpolated,0.53,interpolated,-0.04408,interpolated,-0.0625,interpolated,-0.1,interpolated,0.9882,interpolated,0.0428,observed,-0.0142,observed,0.53,observed,3.16,observed,-4,observed,-3.54,observed,-2.54,observed,3.86,observed,-1,interpolated,2560,interpolated,2544,interpolated,83.13,interpolated,83.13,interpolated,92.125,interpolated,92.125,interpolated,RUN,nearest,RUN,nearest
track,1,0,MU5735,KMG-CAN,B1791,B738,2022-03-21 14:09:10,2022-03-21T06:09:10Z,1647842950.000,109.294998,23.64798,29100,8869.679688,459,850.067993,0,0,102,2101,none,,,,,,,,1,1647554687.600,288262.4,715.1391,2022-03-21 14:09:10,29097.2484,interpolated,457.5,interpolated,104.77,interpolated,2.46,interpolated,0.7,interpolated,-0.05592,interpolated,-0.0625,interpolated,-0.1,interpolated,0.989654,interpolated,0.0449,observed,-0.0162,observed,0.55,observed,2.81,observed,-4,observed,-3.54,observed,-2.49,observed,3.81,observed,-1,interpolated,2560,interpolated,2544,interpolated,83.13,interpolated,83.13,interpolated,92.125,interpolated,92.125,interpolated,RUN,nearest,RUN,nearest
track,1,0,MU5735,KMG-CAN,B1791,B738,2022-03-21 14:09:11,2022-03-21T06:09:11Z,1647842951.000,109.298149,23.647289,29100,8869.679688,459,850.067993,0,0,102,2101,none,,,,,,,,1,1647554687.600,288263.4,714.1391,2022-03-21 14:09:11,,missing,,missing,,missing,,missing,,missing,,missing,,missing,,missing,,missing,,missing,,missing,,missing,,missing,,missing,,missing,,missing,,missing,,missing,2558.706399,interpolated,2538.706399,interpolated,83.117838,interpolated,83.085338,interpolated,,missing,92.125,interpolated,RUN,nearest,RUN,nearest
track,1,0,MU5735,KMG-CAN,B1791,B738,2022-03-21 14:09:12,2022-03-21T06:09:12Z,1647842952.000,109.299507,23.647051,29100,8869.679688,459,850.067993,0,0,102,2101,none,,,,,,,,1,1647554687.600,288264.4,713.1391,2022-03-21 14:09:12,,missing,,missing,,missing,,missing,,missing,,missing,,missing,,missing,,missing,,missing,,missing,,missing,,missing,,missing,,missing,,missing,,missing,,missing,2550.706399,interpolated,2530.706399,interpolated,83.052838,interpolated,83.020338,interpolated,,missing,92.125,interpolated,,missing,,missing
track,1,0,MU5735,KMG-CAN,B1791,B738,2022-03-21 14:09:13,2022-03-21T06:09:13Z,1647842953.000,109.301758,23.646561,29100,8869.679688,459,850.067993,0,0,102,2101,none,,,,,,,,1,1647554687.600,288265.4,712.1391,2022-03-21 14:09:13,29099,interpolated,457.5,interpolated,104.77,interpolated,2.46,interpolated,0.7,interpolated,-0.05592,interpolated,-0.0625,interpolated,-0.1,interpolated,0.980693,interpolated,0.0428,observed,-0.0142,observed,0.55,observed,2.81,observed,-3.9,observed,-3.54,observed,-2.44,observed,3.81,observed,-1,interpolated,2544,interpolated,2528,interpolated,83,interpolated,83,interpolated,,missing,92.125,interpolated,RUN,nearest,RUN,nearest
track,1,0,MU5735,KMG-CAN,B1791,B738,2022-03-21 14:09:14,2022-03-21T06:09:14Z,1647842954.000,109.304008,23.64612,29100,8869.679688,458,848.216003,0,0,102,2101,none,,,,,,,,1,1647554687.600,288266.4,711.1391,2022-03-21 14:09:14,29099.7516,interpolated,457.3876,interpolated,104.77,interpolated,2.46,interpolated,0.53,interpolated,-0.1,interpolated,0,interpolated,0,interpolated,0.987593,interpolated,0.0449,observed,-0.0162,observed,0.55,observed,2.81,observed,-3.9,observed,-3.54,observed,-2.49,observed,3.81,observed,-1,interpolated,2546.587202,interpolated,2538.587202,interpolated,83,interpolated,83,interpolated,92.125,interpolated,92.125,interpolated,RUN,nearest,RUN,nearest
track,1,0,MU5735,KMG-CAN,B1791,B738,2022-03-21 14:09:15,2022-03-21T06:09:15Z,1647842955.000,109.306709,23.645559,29100,8869.679688,458,848.216003,0,0,102,2101,nearest,0.618,2022-03-21 06:09:15Z.618,P,29100,458,102,0,1,1647554687.600,288267.4,710.1391,2022-03-21 14:09:15,29100,interpolated,457,interpolated,104.77,interpolated,2.46,interpolated,0.53,interpolated,-0.1,interpolated,0,interpolated,0,interpolated,0.986746,interpolated,0.0428,observed,-0.0162,observed,0.57,observed,3.16,observed,-3.85,observed,-3.54,observed,-2.54,observed,3.86,observed,-1,interpolated,2557.412798,interpolated,2533.412798,interpolated,83,interpolated,83,interpolated,92.125,interpolated,92.125,interpolated,RUN,nearest,RUN,nearest
track,1,0,MU5735,KMG-CAN,B1791,B738,2022-03-21 14:09:16,2022-03-21T06:09:16Z,1647842956.000,109.308517,23.645189,29100,8869.679688,458,848.216003,0,0,102,2101,nearest,0.382,2022-03-21 06:09:15Z.618,P,29100,458,102,0,1,1647554687.600,288268.4,709.1391,2022-03-21 14:09:16,29100.7516,interpolated,457,interpolated,104.77,interpolated,2.46,interpolated,0.35,interpolated,-0.1,interpolated,0,interpolated,0,interpolated,0.9928,interpolated,0.0449,observed,-0.0162,observed,0.57,observed,3.52,observed,-3.95,observed,-3.54,observed,-2.59,observed,3.91,observed,-1,interpolated,2544,interpolated,2528,interpolated,83,interpolated,83,interpolated,92.125,interpolated,92.125,interpolated,RUN,nearest,RUN,nearest
track,1,0,MU5735,KMG-CAN,B1791,B738,2022-03-21 14:09:17,2022-03-21T06:09:17Z,1647842957.000,109.311684,23.64455,29100,8869.679688,458,848.216003,0,0,102,2101,none,,,,,,,,1,1647554687.600,288269.4,708.1391,2022-03-21 14:09:17,29100,interpolated,457,interpolated,104.77,interpolated,2.46,interpolated,0.35,interpolated,-0.04408,interpolated,0,interpolated,0,interpolated,0.9905,interpolated,0.0449,observed,-0.0142,observed,0.55,observed,3.16,observed,-3.9,observed,-3.49,observed,-2.59,observed,3.91,observed,-1,interpolated,2544,interpolated,2528,interpolated,83,interpolated,83,interpolated,92.125,interpolated,92.125,interpolated,RUN,nearest,RUN,nearest
track,1,0,MU5735,KMG-CAN,B1791,B738,2022-03-21 14:09:18,2022-03-21T06:09:18Z,1647842958.000,109.313957,23.64411,29100,8869.679688,458,848.216003,0,0,102,2101,none,,,,,,,,1,1647554687.600,288270.4,707.1391,2022-03-21 14:09:18,29101,interpolated,457,interpolated,104.77,interpolated,2.46,interpolated,0.35,interpolated,0,interpolated,-0.0625,interpolated,-0.1,interpolated,0.9859,interpolated,0.0449,observed,-0.0162,observed,0.55,observed,3.16,observed,-3.9,observed,-3.54,observed,-2.59,observed,3.91,observed,-1,interpolated,2544,interpolated,2528,interpolated,83,interpolated,83,interpolated,92.125,interpolated,92.125,interpolated,RUN,nearest,RUN,nearest
track,1,0,MU5735,KMG-CAN,B1791,B738,2022-03-21 14:09:19,2022-03-21T06:09:19Z,1647842959.000,109.315781,23.64374,29100,8869.679688,458,848.216003,0,0,102,2101,none,,,,,,,,1,1647554687.600,288271.4,706.1391,2022-03-21 14:09:19,,missing,,missing,,missing,,missing,,missing,,missing,,missing,,missing,,missing,,missing,,missing,,missing,,missing,,missing,,missing,,missing,,missing,,missing,2544,interpolated,2528,interpolated,83,interpolated,83,interpolated,,missing,92.125,interpolated,RUN,nearest,RUN,nearest
track,1,0,MU5735,KMG-CAN,B1791,B738,2022-03-21 14:09:20,2022-03-21T06:09:20Z,1647842960.000,109.318901,23.64308,29100,8869.679688,458,848.216003,0,0,102,2101,nearest,0.404,2022-03-21 06:09:20Z.404,P,29100,458,102,0,1,1647554687.600,288272.4,705.1391,2022-03-21 14:09:20,,missing,,missing,,missing,,missing,,missing,,missing,,missing,,missing,,missing,,missing,,missing,,missing,,missing,,missing,,missing,,missing,,missing,,missing,2544,interpolated,2528,interpolated,83,interpolated,83,interpolated,,missing,92.125,interpolated,,missing,,missing
track,1,0,MU5735,KMG-CAN,B1791,B738,2022-03-21 14:09:21,2022-03-21T06:09:21Z,1647842961.000,109.32029,23.642811,29100,8869.679688,458,848.216003,0,0,102,2101,nearest,0.596,2022-03-21 06:09:20Z.404,P,29100,458,102,0,1,1647554687.600,288273.4,704.1391,2022-03-21 14:09:21,29101.2484,interpolated,457,interpolated,104.77,interpolated,2.46,interpolated,0.53,interpolated,-0.1,interpolated,-0.0625,interpolated,-0.1,interpolated,0.9859,interpolated,0.0449,observed,-0.0162,observed,0.55,observed,3.16,observed,-3.9,observed,-3.54,observed,-2.59,observed,3.91,observed,-1,interpolated,2544,interpolated,2528,interpolated,83,interpolated,83,interpolated,,missing,92.125,interpolated,RUN,nearest,RUN,nearest
track,1,0,MU5735,KMG-CAN,B1791,B738,2022-03-21 14:09:22,2022-03-21T06:09:22Z,1647842962.000,109.32251,23.642349,29100,8869.679688,458,848.216003,0,0,102,2101,none,,,,,,,,1,1647554687.600,288274.4,703.1391,2022-03-21 14:09:22,29102,interpolated,457,interpolated,104.77,interpolated,2.46,interpolated,0.53,interpolated,-0.1,interpolated,0,interpolated,0,interpolated,0.9905,interpolated,0.0449,observed,-0.0162,observed,0.55,observed,3.52,observed,-3.9,observed,-3.49,observed,-2.59,observed,3.95,observed,-1,interpolated,2544,interpolated,2528,interpolated,83,interpolated,83,interpolated,92.125,interpolated,92.125,interpolated,RUN,nearest,RUN,nearest
track,1,0,MU5735,KMG-CAN,B1791,B738,2022-03-21 14:09:23,2022-03-21T06:09:23Z,1647842963.000,109.324799,23.64188,29100,8869.679688,458,848.216003,0,0,102,2101,none,,,,,,,,1,1647554687.600,288275.4,702.1391,2022-03-21 14:09:23,29102,interpolated,457,interpolated,104.77,interpolated,2.46,interpolated,0.53,interpolated,0,interpolated,-0.0625,interpolated,-0.1,interpolated,0.984446,interpolated,0.0449,observed,-0.0162,observed,0.55,observed,3.16,observed,-3.9,observed,-3.54,observed,-2.59,observed,3.91,observed,-1,interpolated,2544,interpolated,2528,interpolated,83,interpolated,83,interpolated,92.125,interpolated,92.125,interpolated,RUN,nearest,RUN,nearest
track,1,0,MU5735,KMG-CAN,B1791,B738,2022-03-21 14:09:24,2022-03-21T06:09:24Z,1647842964.000,109.327042,23.64143,29100,8869.679688,458,848.216003,0,0,102,2101,none,,,,,,,,1,1647554687.600,288276.4,701.1391,2022-03-21 14:09:24,29102.2484,interpolated,457,interpolated,104.77,interpolated,2.46,interpolated,0.53,interpolated,0,interpolated,0,interpolated,0,interpolated,0.987593,interpolated,0.0428,observed,-0.0162,observed,0.55,observed,3.16,observed,-3.9,observed,-3.54,observed,-2.59,observed,3.91,observed,-1,interpolated,2544,interpolated,2528,interpolated,83,interpolated,83,interpolated,92.125,interpolated,92.125,interpolated,RUN,nearest,RUN,nearest
track,1,0,MU5735,KMG-CAN,B1791,B738,2022-03-21 14:09:25,2022-03-21T06:09:25Z,1647842965.000,109.3293,23.641001,29100,8869.679688,458,848.216003,0,0,102,2101,none,,,,,,,,1,1647554687.600,288277.4,700.1391,2022-03-21 14:09:25,29101.2484,interpolated,457,interpolated,104.77,interpolated,2.46,interpolated,0.53,interpolated,0,interpolated,-0.0625,interpolated,-0.1,interpolated,0.9859,interpolated,0.0449,observed,-0.0162,observed,0.55,observed,3.16,observed,-3.9,observed,-3.54,observed,-2.54,observed,3.86,observed,-1,interpolated,2546.587202,interpolated,2528,interpolated,83,interpolated,83,interpolated,92.125,interpolated,92.125,interpolated,RUN,nearest,RUN,nearest
track,1,0,MU5735,KMG-CAN,B1791,B738,2022-03-21 14:09:26,2022-03-21T06:09:26Z,1647842966.000,109.331558,23.64052,29100,8869.679688,458,848.216003,0,0,102,2101,nearest,0.010,2022-03-21 06:09:26Z.010,P,29100,458,102,0,1,1647554687.600,288278.4,699.1391,2022-03-21 14:09:26,29102.7516,interpolated,457,interpolated,104.77,interpolated,2.29,interpolated,0.53,interpolated,-0.1,interpolated,-0.0625,interpolated,-0.1,interpolated,0.989046,interpolated,0.0428,observed,-0.0162,observed,0.55,observed,3.16,observed,-3.9,observed,-3.54,observed,-2.54,observed,3.86,observed,-1,interpolated,2557.412798,interpolated,2528,interpolated,83,interpolated,83,interpolated,92.125,interpolated,92.125,interpolated,RUN,nearest,RUN,nearest
track,1,0,MU5735,KMG-CAN,B1791,B738,2022-03-21 14:09:30,2022-03-21T06:09:30Z,1647842970.000,109.341019,23.638571,29100,8869.679688,458,848.216003,0,0,102,2101,none,,,,,,,,1,1647554687.600,288282.4,695.1391,2022-03-21 14:09:30,29103,interpolated,456.5,interpolated,104.77,interpolated,2.29,interpolated,0.53,interpolated,0,interpolated,-0.0625,interpolated,-0.1,interpolated,0.987354,interpolated,0.0428,observed,-0.0142,observed,0.55,observed,3.16,observed,-3.9,observed,-3.54,observed,-2.59,observed,3.91,observed,-1,interpolated,2557.412798,interpolated,2528,interpolated,83,interpolated,83,interpolated,92.125,interpolated,92.125,interpolated,RUN,nearest,RUN,nearest
track,1,0,MU5735,KMG-CAN,B1791,B738,2022-03-21 14:09:31,2022-03-21T06:09:31Z,1647842971.000,109.343262,23.63814,29100,8869.679688,458,848.216003,0,0,102,2101,nearest,0.632,2022-03-21 06:09:31Z.632,P,29100,458,102,0,1,1647554687.600,288283.4,694.1391,2022-03-21 14:09:31,29103,interpolated,456.5,interpolated,104.77,interpolated,2.29,interpolated,0.53,interpolated,-0.1,interpolated,-0.0625,interpolated,-0.1,interpolated,0.985054,interpolated,0.0449,observed,-0.0162,observed,0.55,observed,3.16,observed,-4,observed,-3.54,observed,-2.54,observed,3.91,observed,-1,interpolated,2549.174403,interpolated,2538.587202,interpolated,83.024323,interpolated,83,interpolated,92.125,interpolated,92.125,interpolated,RUN,nearest,RUN,nearest
track,1,0,MU5735,KMG-CAN,B1791,B738,2022-03-21 14:09:32,2022-03-21T06:09:32Z,1647842972.000,109.344643,23.63788,29100,8869.679688,458,848.216003,0,0,102,2101,nearest,0.368,2022-03-21 06:09:31Z.632,P,29100,458,102,0,1,1647554687.600,288284.4,693.1391,2022-03-21 14:09:32,29103,interpolated,456.5,interpolated,104.77,interpolated,2.29,interpolated,0.35,interpolated,-0.1,interpolated,-0.0625,interpolated,-0.1,interpolated,0.984446,interpolated,0.0449,observed,-0.0162,observed,0.55,observed,3.16,observed,-3.9,observed,-3.54,observed,-2.54,observed,3.91,observed,-1,interpolated,2576,interpolated,2544,interpolated,83.13,interpolated,83.089323,interpolated,92.238963,interpolated,92.125,interpolated,RUN,nearest,RUN,nearest
track,1,0,MU5735,KMG-CAN,B1791,B738,2022-03-21 14:09:33,2022-03-21T06:09:33Z,1647842973.000,109.347794,23.63722,29100,8869.679688,458,848.216003,0,0,102,2101,nearest,0.640,2022-03-21 06:09:33Z.640,P,29100,458,102,0,1,1647554687.600,288285.4,692.1391,2022-03-21 14:09:33,29102.7516,interpolated,456.5,interpolated,104.77,interpolated,2.29,interpolated,0.35,interpolated,-0.1,interpolated,-0.0625,interpolated,-0.1,interpolated,0.9859,interpolated,0.0449,observed,-0.0162,observed,0.55,observed,3.16,observed,-3.9,observed,-3.54,observed,-2.54,observed,3.91,observed,-1,interpolated,2576,interpolated,2544,interpolated,83.13,interpolated,83.13,interpolated,92.25,interpolated,92.125,interpolated,RUN,nearest,RUN,nearest
track,1,0,MU5735,KMG-CAN,B1791,B738,2022-03-21 14:09:37,2022-03-21T06:09:37Z,1647842977.000,109.356789,23.635389,29100,8869.679688,458,848.216003,0,0,102,2101,nearest,0.522,2022-03-21 06:09:37Z.522,P,29100,458,102,0,1,1647554687.600,288289.4,688.1391,2022-03-21 14:09:37,29103,interpolated,456.5,interpolated,104.77,interpolated,2.29,interpolated,0.53,interpolated,-0.1,interpolated,-0.0625,interpolated,-0.1,interpolated,0.989654,interpolated,0.0449,observed,-0.0162,observed,0.53,observed,2.81,observed,-4,observed,-3.54,observed,-2.49,observed,3.86,observed,-1,interpolated,2576,interpolated,2544,interpolated,83.25,interpolated,83.167548,interpolated,,missing,92.25,interpolated,RUN,nearest,RUN,nearest
track,1,0,MU5735,KMG-CAN,B1791,B738,2022-03-21 14:09:51,2022-03-21T06:09:51Z,1647842991.000,109.387863,23.62903,29100,8869.679688,458,848.216003,0,0,102,2101,none,,,,,,,,1,1647554687.600,288303.4,674.1391,2022-03-21 14:09:51,,missing,,missing,,missing,,missing,,missing,,missing,,missing,,missing,,missing,,missing,,missing,,missing,,missing,,missing,,missing,,missing,,missing,,missing,2576,interpolated,2554.706399,interpolated,83.25,interpolated,83.25,interpolated,,missing,92.25,interpolated,RUN,nearest,RUN,nearest
track,1,0,MU5735,KMG-CAN,B1791,B738,2022-03-21 14:09:52,2022-03-21T06:09:52Z,1647842992.000,109.391022,23.628389,29100,8869.679688,457,846.364014,0,0,102,2101,none,,,,,,,,1,1647554687.600,288304.4,673.1391,2022-03-21 14:09:52,,missing,,missing,,missing,,missing,,missing,,missing,,missing,,missing,,missing,,missing,,missing,,missing,,missing,,missing,,missing,,missing,,missing,,missing,2576,interpolated,2546.706399,interpolated,83.25,interpolated,83.25,interpolated,,missing,92.25,interpolated,,missing,,missing
track,1,0,MU5735,KMG-CAN,B1791,B738,2022-03-21 14:09:53,2022-03-21T06:09:53Z,1647842993.000,109.391937,23.628201,29100,8869.679688,457,846.364014,0,0,102,2101,none,,,,,,,,1,1647554687.600,288305.4,672.1391,2022-03-21 14:09:53,29097.503199,interpolated,456,interpolated,104.77,interpolated,2.46,interpolated,0.53,interpolated,-0.1,interpolated,0,interpolated,0,interpolated,0.9928,interpolated,0.0449,observed,-0.0162,observed,0.59,observed,3.16,observed,-3.9,observed,-3.49,observed,-2.54,observed,3.86,observed,-1,interpolated,2576,interpolated,2544,interpolated,83.25,interpolated,83.167548,interpolated,,missing,92.25,interpolated,RUN,nearest,RUN,nearest
track,1,0,MU5735,KMG-CAN,B1791,B738,2022-03-21 14:09:54,2022-03-21T06:09:54Z,1647842994.000,109.39463,23.627661,29100,8869.679688,457,846.364014,0,0,102,2101,none,,,,,,,,1,1647554687.600,288306.4,671.1391,2022-03-21 14:09:54,29098.503199,interpolated,456,interpolated,104.77,interpolated,2.46,interpolated,0.35,interpolated,-0.1,interpolated,-0.0625,interpolated,-0.1,interpolated,0.995,interpolated,0.0449,observed,-0.0162,observed,0.57,observed,3.16,observed,-3.9,observed,-3.49,observed,-2.54,observed,3.91,observed,-1,interpolated,2576,interpolated,2544,interpolated,83.25,interpolated,83.13,interpolated,92.25,interpolated,92.25,interpolated,RUN,nearest,RUN,nearest
track,1,0,MU5735,KMG-CAN,B1791,B738,2022-03-21 14:09:55,2022-03-21T06:09:55Z,1647842995.000,109.396881,23.62722,29100,8869.679688,457,846.364014,0,0,102,2101,none,,,,,,,,1,1647554687.600,288307.4,670.1391,2022-03-21 14:09:55,29098,interpolated,456,interpolated,104.77,interpolated,2.46,interpolated,0.35,interpolated,-0.1,interpolated,0,interpolated,0,interpolated,0.99419,interpolated,0.0449,observed,-0.0162,observed,0.57,observed,3.52,observed,-3.85,observed,-3.49,observed,-2.59,observed,3.95,observed,-1,interpolated,2576,interpolated,2554.587202,interpolated,83.25,interpolated,83.212452,interpolated,92.25,interpolated,92.25,interpolated,RUN,nearest,RUN,nearest
track,1,0,MU5735,KMG-CAN,B1791,B738,2022-03-21 14:09:57,2022-03-21T06:09:57Z,1647842997.000,109.40094,23.626369,29100,8869.679688,457,846.364014,0,0,102,2101,none,,,,,,,,1,1647554687.600,288309.4,668.1391,2022-03-21 14:09:57,29099.7516,interpolated,456,interpolated,104.77,interpolated,2.46,interpolated,0.53,interpolated,0,interpolated,-0.0625,interpolated,-0.1,interpolated,0.9905,interpolated,0.0449,observed,-0.0162,observed,0.55,observed,3.16,observed,-4,observed,-3.49,observed,-2.54,observed,3.91,observed,-1,interpolated,2576,interpolated,2544,interpolated,83.25,interpolated,83.13,interpolated,92.25,interpolated,92.25,interpolated,RUN,nearest,RUN,nearest
track,1,0,MU5735,KMG-CAN,B1791,B738,2022-03-21 14:09:59,2022-03-21T06:09:59Z,1647842999.000,109.405899,23.625351,29100,8869.679688,457,846.364014,64,0,102,2101,none,,,,,,,,1,1647554687.600,288311.4,666.1391,2022-03-21 14:09:59,,missing,,missing,,missing,,missing,,missing,,missing,,missing,,missing,,missing,,missing,,missing,,missing,,missing,,missing,,missing,,missing,,missing,,missing,2576,interpolated,2544,interpolated,83.25,interpolated,83.13,interpolated,,missing,92.25,interpolated,RUN,nearest,RUN,nearest
track,1,0,MU5735,KMG-CAN,B1791,B738,2022-03-21 14:10:16,2022-03-21T06:10:16Z,1647843016.000,109.44368,23.61767,29100,8869.679688,457,846.364014,-64,0,102,2101,none,,,,,,,,1,1647554687.600,288328.4,649.1391,2022-03-21 14:10:16,,missing,,missing,,missing,,missing,,missing,,missing,,missing,,missing,,missing,,missing,,missing,,missing,,missing,,missing,,missing,,missing,,missing,,missing,2560,interpolated,2528,interpolated,83.13,interpolated,83,interpolated,,missing,92.125,interpolated,,missing,,missing
track,1,0,MU5735,KMG-CAN,B1791,B738,2022-03-21 14:10:17,2022-03-21T06:10:17Z,1647843017.000,109.4459,23.61717,29100,8869.679688,457,846.364014,-64,0,102,2101,none,,,,,,,,1,1647554687.600,288329.4,648.1391,2022-03-21 14:10:17,29099,interpolated,455.5,interpolated,104.77,interpolated,2.46,interpolated,0.53,interpolated,0,interpolated,-0.0625,interpolated,-0.1,interpolated,0.991954,interpolated,0.0469,observed,-0.0162,observed,0.62,observed,3.16,observed,-3.85,observed,-3.49,observed,-2.54,observed,3.91,observed,-1,interpolated,2557.412798,interpolated,2528,interpolated,83.13,interpolated,83,interpolated,,missing,92.125,interpolated,RUN,nearest,RUN,nearest
track,1,0,MU5735,KMG-CAN,B1791,B738,2022-03-21 14:10:18,2022-03-21T06:10:18Z,1647843018.000,109.448181,23.616739,29100,8869.679688,457,846.364014,-64,0,102,2101,none,,,,,,,,1,1647554687.600,288330.4,647.1391,2022-03-21 14:10:18,29098.7516,interpolated,455.5,interpolated,104.77,interpolated,2.46,interpolated,0.53,interpolated,0,interpolated,-0.0625,interpolated,-0.1,interpolated,0.99419,interpolated,0.0449,observed,-0.0162,observed,0.62,observed,3.16,observed,-3.8,observed,-3.44,observed,-2.54,observed,3.86,observed,-1,interpolated,2546.587202,interpolated,2528,interpolated,83.13,interpolated,83,interpolated,92.136037,interpolated,92.125,interpolated,RUN,nearest,RUN,nearest
track,1,0,MU5735,KMG-CAN,B1791,B738,2022-03-21 14:10:19,2022-03-21T06:10:19Z,1647843019.000,109.450882,23.61618,29100,8869.679688,457,846.364014,-64,0,102,2101,nearest,0.254,2022-03-21 06:10:19Z.254,P,29100,457,102,-64,1,1647554687.600,288331.4,646.1391,2022-03-21 14:10:19,29098.7516,interpolated,455.5,interpolated,104.77,interpolated,2.46,interpolated,0.53,interpolated,-0.1,interpolated,0,interpolated,0,interpolated,0.99361,interpolated,0.0469,observed,-0.0162,observed,0.62,observed,3.16,observed,-3.8,observed,-3.44,observed,-2.54,observed,3.86,observed,-1,interpolated,2557.412798,interpolated,2528,interpolated,83.13,interpolated,83,interpolated,92.125,interpolated,92.125,interpolated,RUN,nearest,RUN,nearest
track,1,0,MU5735,KMG-CAN,B1791,B738,2022-03-21 14:10:24,2022-03-21T06:10:24Z,1647843024.000,109.46254,23.61381,29100,8869.679688,457,846.364014,-64,0,102,2101,none,,,,,,,,1,1647554687.600,288336.4,641.1391,2022-03-21 14:10:24,,missing,,missing,,missing,,missing,,missing,,missing,,missing,,missing,,missing,,missing,,missing,,missing,,missing,,missing,,missing,,missing,,missing,,missing,2560,interpolated,2528,interpolated,83.13,interpolated,83,interpolated,,missing,92.125,interpolated,RUN,nearest,RUN,nearest
track,1,0,MU5735,KMG-CAN,B1791,B738,2022-03-21 14:10:26,2022-03-21T06:10:26Z,1647843026.000,109.466118,23.61306,29100,8869.679688,456,844.512024,0,0,103,2101,none,,,,,,,,1,1647554687.600,288338.4,639.1391,2022-03-21 14:10:26,29096,interpolated,455.3876,interpolated,104.77,interpolated,2.46,interpolated,0.35,interpolated,-0.1,interpolated,0,interpolated,0,interpolated,0.986746,interpolated,0.0469,observed,-0.0162,observed,0.64,observed,3.52,observed,-3.8,observed,-3.44,observed,-2.59,observed,3.91,observed,-1,interpolated,2560,interpolated,2517.412798,interpolated,83.13,interpolated,83,interpolated,92.125,interpolated,92.125,interpolated,RUN,nearest,RUN,nearest
track,1,0,MU5735,KMG-CAN,B1791,B738,2022-03-21 14:10:27,2022-03-21T06:10:27Z,1647843027.000,109.468384,23.612591,29100,8869.679688,456,844.512024,0,0,103,2101,nearest,0.768,2022-03-21 06:10:27Z.768,P,29100,456,102,0,1,1647554687.600,288339.4,638.1391,2022-03-21 14:10:27,29096.2484,interpolated,455,interpolated,104.77,interpolated,2.46,interpolated,0.35,interpolated,0,interpolated,-0.0625,interpolated,-0.1,interpolated,0.991954,interpolated,0.0449,observed,-0.0162,observed,0.64,observed,3.16,observed,-3.8,observed,-3.49,observed,-2.59,observed,3.91,observed,-1,interpolated,2560,interpolated,2522.587202,interpolated,83.13,interpolated,83,interpolated,92.238963,interpolated,92.125,interpolated,RUN,nearest,RUN,nearest
