sheet_sources,track_present,crash_present,flight_no,route,aircraft_no,aircraft_type,time_local_cst,time_utc,unix_time,longitude,latitude,altitude_ft,altitude_m,ground_speed_kn,ground_speed_kph,vertical_speed_fpm,vertical_speed_fpm_calc,heading_deg,squawk,fr24_match,fr24_time_delta_s,fr24_time_utc,fr24_no_position,fr24_altitude_ft,fr24_speed_kn,fr24_track_deg,fr24_vspeed_fpm,fdr_overlap,fdr_offset_s,fdr_time_abs,seconds_to_fdr_end,fdr_time_local_cst,fdr_altitude_press,fdr_altitude_press_quality,fdr_ground_spd,fdr_ground_spd_quality,fdr_heading,fdr_heading_quality,fdr_pitch_angle,fdr_pitch_angle_quality,fdr_roll_angle,fdr_roll_angle_quality,fdr_roll_rate,fdr_roll_rate_quality,fdr_absolute_roll_rate,fdr_absolute_roll_rate_quality,fdr_yaw_rate,fdr_yaw_rate_quality,fdr_accel_vert,fdr_accel_vert_quality,fdr_accel_long,fdr_accel_long_quality,fdr_accel_lat,fdr_accel_lat_quality,fdr_ctrl_col_pos_l,fdr_ctrl_col_pos_l_quality,fdr_ctrl_whl_pos_l,fdr_ctrl_whl_pos_l_quality,fdr_elevator_l,fdr_elevator_l_quality,fdr_elevator_r,fdr_elevator_r_quality,fdr_aileron_l,fdr_aileron_l_quality,fdr_aileron_r,fdr_aileron_r_quality,fdr_rudder,fdr_rudder_quality,fdr_eng1_fuel_flow,fdr_eng1_fuel_flow_quality,fdr_eng2_fuel_flow,fdr_eng2_fuel_flow_quality,fdr_eng1_n1,fdr_eng1_n1_quality,fdr_eng2_n1,fdr_eng2_n1_quality,fdr_eng1_n2_actual,fdr_eng1_n2_actual_quality,fdr_eng2_n2_actual,fdr_eng2_n2_actual_quality,fdr_eng1_cutoff_sw,fdr_eng1_cutoff_sw_quality,fdr_eng2_cutoff_sw,fdr_eng2_cutoff_sw_quality
track,1,0,MU5735,KMG-CAN,B1791,B738,2022-03-21 14:16:05,2022-03-21T06:16:05Z,1647843365.000,110.224564,23.45632,29100,8869.679688,455,842.659973,0,0,103,2101,nearest,0.064,2022-03-21 06:16:05Z.064,P,29100,455,102,0,1,1647554687.600,288677.4,300.1391,2022-03-21 14:16:05,29100,interpolated,454,interpolated,104.41,interpolated,2.64,interpolated,0.7,interpolated,0,interpolated,0,interpolated,0,interpolated,0.989046,interpolated,0.0469,observed,-0.0162,observed,0.64,observed,3.16,observed,-3.8,observed,-3.44,observed,-2.49,observed,3.86,observed,-1,interpolated,2589.412798,interpolated,2560,interpolated,83.38,interpolated,83.38,interpolated,92.375,interpolated,92.25,interpolated,RUN,nearest,RUN,nearest
track,1,0,MU5735,KMG-CAN,B1791,B738,2022-03-21 14:16:06,2022-03-21T06:16:06Z,1647843366.000,110.226784,23.45586,29100,8869.679688,455,842.659973,0,0,103,2101,nearest,0.936,2022-03-21 06:16:05Z.064,P,29100,455,102,0,1,1647554687.600,288678.4,299.1391,2022-03-21 14:16:06,29099.2484,interpolated,454,interpolated,104.41,interpolated,2.64,interpolated,0.7,interpolated,0,interpolated,0,interpolated,0,interpolated,0.987593,interpolated,0.0469,observed,-0.0162,observed,0.64,observed,2.81,observed,-3.85,observed,-3.39,observed,-2.49,observed,3.81,observed,-1,interpolated,,missing,2560,interpolated,,missing,83.38,interpolated,92.261037,interpolated,92.25,interpolated,RUN,nearest,RUN,nearest
track,1,0,MU5735,KMG-CAN,B1791,B738,2022-03-21 14:16:07,2022-03-21T06:16:07Z,1647843367.000,110.228577,23.45549,29100,8869.679688,455,842.659973,0,0,103,2101,none,,,,,,,,1,1647554687.600,288679.4,298.1391,2022-03-21 14:16:07,,missing,,missing,,missing,,missing,,missing,,missing,,missing,,missing,,missing,,missing,,missing,,missing,,missing,,missing,,missing,,missing,,missing,,missing,,missing,2560,interpolated,,missing,83.38,interpolated,92.25,interpolated,92.25,interpolated,RUN,nearest,RUN,nearest
track,1,0,MU5735,KMG-CAN,B1791,B738,2022-03-21 14:16:08,2022-03-21T06:16:08Z,1647843368.000,110.230812,23.455021,29100,8869.679688,455,842.659973,0,0,103,2101,none,,,,,,,,1,1647554687.600,288680.4,297.1391,2022-03-21 14:16:08,,missing,,missing,,missing,,missing,,missing,,missing,,missing,,missing,0.9905,interpolated,0.0469,observed,-0.0142,observed,0.66,observed,3.16,observed,-3.75,observed,-3.39,observed,-2.49,observed,3.86,observed,,missing,,missing,2560,interpolated,,missing,83.38,interpolated,92.25,interpolated,92.25,interpolated,RUN,nearest,RUN,nearest
track,1,0,MU5735,KMG-CAN,B1791,B738,2022-03-21 14:16:09,2022-03-21T06:16:09Z,1647843369.000,110.234383,23.454269,29100,8869.679688,455,842.659973,0,0,103,2101,none,,,,,,,,1,1647554687.600,288681.4,296.1391,2022-03-21 14:16:09,29101,interpolated,454,interpolated,104.41,interpolated,2.46,interpolated,0.7,interpolated,0.1,interpolated,0,interpolated,0,interpolated,0.9882,interpolated,0.0469,observed,-0.0142,observed,0.66,observed,2.46,observed,-3.8,observed,-3.39,observed,-2.39,observed,3.76,observed,-1,interpolated,2578.587202,interpolated,2560,interpolated,83.38,interpolated,83.38,interpolated,92.363963,interpolated,92.25,interpolated,RUN,nearest,RUN,nearest
track,1,0,MU5735,KMG-CAN,B1791,B738,2022-03-21 14:16:10,2022-03-21T06:16:10Z,1647843370.000,110.235718,23.453979,29100,8869.679688,455,842.659973,0,0,103,2101,nearest,0.006,2022-03-21 06:16:10Z.006,P,29100,455,102,0,1,1647554687.600,288682.4,295.1391,2022-03-21 14:16:10,29101,interpolated,454,interpolated,104.41,interpolated,2.46,interpolated,0.786904,interpolated,0,interpolated,0,interpolated,0,interpolated,0.991107,interpolated,0.0469,observed,-0.0142,observed,0.66,observed,2.11,observed,-3.7,observed,-3.39,observed,-2.34,observed,3.71,observed,-1,interpolated,2592,interpolated,2560,interpolated,83.38,interpolated,83.38,interpolated,92.375,interpolated,92.25,interpolated,RUN,nearest,RUN,nearest
track,1,0,MU5735,KMG-CAN,B1791,B738,2022-03-21 14:16:11,2022-03-21T06:16:11Z,1647843371.000,110.237938,23.453529,29100,8869.679688,455,842.659973,0,0,103,2101,nearest,0.994,2022-03-21 06:16:10Z.006,P,29100,455,102,0,1,1647554687.600,288683.4,294.1391,2022-03-21 14:16:11,29101.7516,interpolated,454,interpolated,104.41,interpolated,2.46,interpolated,0.88,interpolated,-0.04408,interpolated,0,interpolated,0,interpolated,0.9836,interpolated,0.0469,observed,-0.0142,observed,0.68,observed,2.11,observed,-3.75,observed,-3.39,observed,-2.34,observed,3.66,observed,-1,interpolated,2589.412798,interpolated,2560,interpolated,83.38,interpolated,83.38,interpolated,92.375,interpolated,92.25,interpolated,RUN,nearest,RUN,nearest
track,1,0,MU5735,KMG-CAN,B1791,B738,2022-03-21 14:16:12,2022-03-21T06:16:12Z,1647843372.000,110.240158,23.45306,29100,8869.679688,455,842.659973,0,0,103,2101,none,,,,,,,,1,1647554687.600,288684.4,293.1391,2022-03-21 14:16:12,29100,interpolated,454,interpolated,104.41,interpolated,2.46,interpolated,0.88,interpolated,-0.05592,interpolated,0,interpolated,0,interpolated,0.99361,interpolated,0.0469,observed,-0.0142,observed,0.68,observed,2.11,observed,-3.8,observed,-3.39,observed,-2.3,observed,3.66,observed,-1,interpolated,2576,interpolated,2560,interpolated,83.38,interpolated,83.38,interpolated,92.375,interpolated,92.25,interpolated,RUN,nearest,RUN,nearest
track,1,0,MU5735,KMG-CAN,B1791,B738,2022-03-21 14:16:13,2022-03-21T06:16:13Z,1647843373.000,110.242409,23.4526,29100,8869.679688,455,842.659973,0,0,103,2101,none,,,,,,,,1,1647554687.600,288685.4,292.1391,2022-03-21 14:16:13,29101,interpolated,454,interpolated,104.530384,interpolated,2.46,interpolated,0.7,interpolated,-0.2,interpolated,0,interpolated,0,interpolated,0.985054,interpolated,0.0469,observed,-0.0162,observed,0.7,observed,2.46,observed,-3.7,observed,-3.39,observed,-2.34,observed,3.71,observed,-1,interpolated,2578.587202,interpolated,2560,interpolated,83.38,interpolated,83.38,interpolated,92.375,interpolated,92.25,interpolated,RUN,nearest,RUN,nearest
track,1,0,MU5735,KMG-CAN,B1791,B738,2022-03-21 14:16:14,2022-03-21T06:16:14Z,1647843374.000,110.244614,23.452101,29100,8869.679688,455,842.659973,0,0,103,2101,none,,,,,,,,1,1647554687.600,288686.4,291.1391,2022-03-21 14:16:14,29101.2484,interpolated,454,interpolated,104.77,interpolated,2.46,interpolated,0.7,interpolated,0.1,interpolated,-0.03885,interpolated,-0.06216,interpolated,0.984446,interpolated,0.0469,observed,-0.0142,observed,0.68,observed,2.11,observed,-3.8,observed,-3.39,observed,-2.3,observed,3.66,observed,-1,interpolated,,missing,2560,interpolated,,missing,83.38,interpolated,92.261037,interpolated,92.25,interpolated,RUN,nearest,RUN,nearest
track,1,0,MU5735,KMG-CAN,B1791,B738,2022-03-21 14:16:15,2022-03-21T06:16:15Z,1647843375.000,110.246887,23.45162,29100,8869.679688,455,842.659973,0,0,103,2101,nearest,0.438,2022-03-21 06:16:15Z.438,P,29100,455,102,0,1,1647554687.600,288687.4,290.1391,2022-03-21 14:16:15,,missing,,missing,,missing,,missing,,missing,,missing,,missing,,missing,,missing,,missing,,missing,,missing,,missing,,missing,,missing,,missing,,missing,,missing,,missing,2565.293601,interpolated,,missing,83.38,interpolated,92.25,interpolated,92.25,interpolated,RUN,nearest,RUN,nearest
track,1,0,MU5735,KMG-CAN,B1791,B738,2022-03-21 14:16:16,2022-03-21T06:16:16Z,1647843376.000,110.2491,23.451191,29100,8869.679688,455,842.659973,0,0,103,2101,nearest,0.562,2022-03-21 06:16:15Z.438,P,29100,455,102,0,1,1647554687.600,288688.4,289.1391,2022-03-21 14:16:16,,missing,,missing,,missing,,missing,,missing,,missing,,missing,,missing,0.985054,interpolated,0.0469,observed,-0.0142,observed,0.68,observed,2.46,observed,-3.8,observed,-3.39,observed,-2.39,observed,3.76,observed,,missing,,missing,2573.293601,interpolated,,missing,83.38,interpolated,92.25,interpolated,92.25,interpolated,RUN,nearest,RUN,nearest
track,1,0,MU5735,KMG-CAN,B1791,B738,2022-03-21 14:16:17,2022-03-21T06:16:17Z,1647843377.000,110.2509,23.450781,29100,8869.679688,455,842.659973,0,0,103,2101,none,,,,,,,,1,1647554687.600,288689.4,288.1391,2022-03-21 14:16:17,29099.7516,interpolated,454,interpolated,104.77,interpolated,2.46,interpolated,0.53,interpolated,-0.1,interpolated,-0.02365,interpolated,-0.03784,interpolated,0.991107,interpolated,0.049,observed,-0.0142,observed,0.68,observed,2.46,observed,-3.75,observed,-3.34,observed,-2.34,observed,3.71,observed,-1,interpolated,2589.412798,interpolated,2565.412798,interpolated,83.38,interpolated,83.38,interpolated,92.25,interpolated,92.25,interpolated,RUN,nearest,RUN,nearest
track,1,0,MU5735,KMG-CAN,B1791,B738,2022-03-21 14:16:18,2022-03-21T06:16:18Z,1647843378.000,110.25309,23.450319,29100,8869.679688,455,842.659973,0,0,103,2101,none,,,,,,,,1,1647554687.600,288690.4,287.1391,2022-03-21 14:16:18,29099.2484,interpolated,454,interpolated,104.77,interpolated,2.46,interpolated,0.53,interpolated,0,interpolated,0,interpolated,0,interpolated,0.989654,interpolated,0.049,observed,-0.0142,observed,0.68,observed,2.46,observed,-3.75,observed,-3.39,observed,-2.39,observed,3.76,observed,-1,interpolated,2578.587202,interpolated,2560,interpolated,83.38,interpolated,83.38,interpolated,92.25,interpolated,92.25,interpolated,RUN,nearest,RUN,nearest
track,1,0,MU5735,KMG-CAN,B1791,B738,2022-03-21 14:16:19,2022-03-21T06:16:19Z,1647843379.000,110.255791,23.44976,29100,8869.679688,455,842.659973,0,0,103,2101,none,,,,,,,,1,1647554687.600,288691.4,286.1391,2022-03-21 14:16:19,29099.7516,interpolated,454,interpolated,104.77,interpolated,2.46,interpolated,0.53,interpolated,0,interpolated,-0.03885,interpolated,-0.06216,interpolated,0.986507,interpolated,0.049,observed,-0.0142,observed,0.68,observed,2.11,observed,-3.75,observed,-3.39,observed,-2.34,observed,3.71,observed,-1,interpolated,2589.412798,interpolated,2560,interpolated,83.38,interpolated,83.38,interpolated,92.25,interpolated,92.301463,interpolated,RUN,nearest,RUN,nearest
track,1,0,MU5735,KMG-CAN,B1791,B738,2022-03-21 14:16:20,2022-03-21T06:16:20Z,1647843380.000,110.258888,23.44908,29100,8869.679688,455,842.659973,0,0,103,2101,nearest,0.980,2022-03-21 06:16:20Z.980,P,29100,455,102,0,1,1647554687.600,288692.4,285.1391,2022-03-21 14:16:20,29098.7516,interpolated,454,interpolated,104.77,interpolated,2.64,interpolated,0.53,interpolated,0,interpolated,0,interpolated,0,interpolated,0.9905,interpolated,0.049,observed,-0.0142,observed,0.68,observed,2.46,observed,-3.75,observed,-3.34,observed,-2.39,observed,3.76,observed,-1,interpolated,2578.587202,interpolated,2560,interpolated,83.38,interpolated,83.38,interpolated,92.25,interpolated,92.323537,interpolated,RUN,nearest,RUN,nearest
track,1,0,MU5735,KMG-CAN,B1791,B738,2022-03-21 14:16:21,2022-03-21T06:16:21Z,1647843381.000,110.261589,23.44853,29100,8869.679688,455,842.659973,0,0,103,2101,nearest,0.020,2022-03-21 06:16:20Z.980,P,29100,455,102,0,1,1647554687.600,288693.4,284.1391,2022-03-21 14:16:21,29099,interpolated,454,interpolated,104.77,interpolated,2.64,interpolated,0.53,interpolated,0,interpolated,-0.0625,interpolated,-0.1,interpolated,0.989654,interpolated,0.0469,observed,-0.0142,observed,0.68,observed,2.11,observed,-3.7,observed,-3.39,observed,-2.34,observed,3.71,observed,-1,interpolated,2592,interpolated,2560,interpolated,83.38,interpolated,83.38,interpolated,92.25,interpolated,92.25,interpolated,RUN,nearest,RUN,nearest
track,1,0,MU5735,KMG-CAN,B1791,B738,2022-03-21 14:16:22,2022-03-21T06:16:22Z,1647843382.000,110.262909,23.448271,29100,8869.679688,455,842.659973,0,0,103,2101,none,,,,,,,,1,1647554687.600,288694.4,283.1391,2022-03-21 14:16:22,29098,interpolated,454,interpolated,104.77,interpolated,2.64,interpolated,0.53,interpolated,-0.1,interpolated,0,interpolated,0,interpolated,0.985293,interpolated,0.0469,observed,-0.0142,observed,0.68,observed,2.46,observed,-3.75,observed,-3.39,observed,-2.34,observed,3.76,observed,-1,interpolated,,missing,2560,interpolated,,missing,83.38,interpolated,92.363963,interpolated,92.301463,interpolated,RUN,nearest,RUN,nearest
track,1,0,MU5735,KMG-CAN,B1791,B738,2022-03-21 14:16:23,2022-03-21T06:16:23Z,1647843383.000,110.264282,23.447981,29100,8869.679688,455,842.659973,0,0,103,2101,none,,,,,,,,1,1647554687.600,288695.4,282.1391,2022-03-21 14:16:23,,missing,,missing,,missing,,missing,,missing,,missing,,missing,,missing,,missing,,missing,,missing,,missing,,missing,,missing,,missing,,missing,,missing,,missing,,missing,2560,interpolated,,missing,83.38,interpolated,92.318019,interpolated,92.349269,interpolated,RUN,nearest,RUN,nearest
track,1,0,MU5735,KMG-CAN,B1791,B738,2022-03-21 14:16:24,2022-03-21T06:16:24Z,1647843384.000,110.266472,23.447479,29100,8869.679688,455,842.659973,0,0,103,2101,nearest,0.264,2022-03-21 06:16:24Z.264,P,29100,455,102,0,1,1647554687.600,288696.4,281.1391,2022-03-21 14:16:24,,missing,,missing,,missing,,missing,,missing,,missing,,missing,,missing,0.989893,interpolated,0.0469,observed,-0.0142,observed,0.68,observed,2.11,observed,-3.64,observed,-3.34,observed,-2.34,observed,3.71,observed,,missing,,missing,2560,interpolated,,missing,83.38,interpolated,92.255519,interpolated,92.286769,interpolated,RUN,nearest,RUN,nearest
track,1,0,MU5735,KMG-CAN,B1791,B738,2022-03-21 14:16:25,2022-03-21T06:16:25Z,1647843385.000,110.26963,23.44684,29100,8869.679688,455,842.659973,0,0,103,2101,nearest,0.736,2022-03-21 06:16:24Z.264,P,29100,455,102,0,1,1647554687.600,288697.4,280.1391,2022-03-21 14:16:25,29098,interpolated,454,interpolated,104.77,interpolated,2.64,interpolated,0.53,interpolated,0.1,interpolated,-0.0625,interpolated,-0.1,interpolated,0.9882,interpolated,0.049,observed,-0.0142,observed,0.7,observed,2.11,observed,-3.75,observed,-3.39,observed,-2.3,observed,3.66,observed,-1,interpolated,2592,interpolated,2560,interpolated,83.38,interpolated,83.38,interpolated,92.363963,interpolated,92.25,interpolated,RUN,nearest,RUN,nearest
track,1,0,MU5735,KMG-CAN,B1791,B738,2022-03-21 14:16:26,2022-03-21T06:16:26Z,1647843386.000,110.27095,23.44655,29100,8869.679688,455,842.659973,0,0,103,2101,none,,,,,,,,1,1647554687.600,288698.4,279.1391,2022-03-21 14:16:26,29097.7516,interpolated,454,interpolated,104.77,interpolated,2.64,interpolated,0.53,interpolated,0,interpolated,0,interpolated,0,interpolated,0.99419,interpolated,0.049,observed,-0.0121,observed,0.7,observed,1.76,observed,-3.75,observed,-3.34,observed,-2.25,observed,3.62,observed,-1,interpolated,2592,interpolated,2560,interpolated,83.38,interpolated,83.38,interpolated,92.375,interpolated,92.25,interpolated,RUN,nearest,RUN,nearest
track,1,0,MU5735,KMG-CAN,B1791,B738,2022-03-21 14:16:27,2022-03-21T06:16:27Z,1647843387.000,110.274071,23.445881,29100,8869.679688,455,842.659973,0,0,103,2101,none,,,,,,,,1,1647554687.600,288699.4,278.1391,2022-03-21 14:16:27,29098,interpolated,454,interpolated,104.77,interpolated,2.64,interpolated,0.53,interpolated,-0.1,interpolated,0,interpolated,0,interpolated,0.9928,interpolated,0.049,observed,-0.0142,observed,0.7,observed,1.76,observed,-3.75,observed,-3.34,observed,-2.25,observed,3.62,observed,-1,interpolated,2592,interpolated,2560,interpolated,83.38,interpolated,83.38,interpolated,92.375,interpolated,92.25,interpolated,RUN,nearest,RUN,nearest
track,1,0,MU5735,KMG-CAN,B1791,B738,2022-03-21 14:16:28,2022-03-21T06:16:28Z,1647843388.000,110.275871,23.445511,29100,8869.679688,455,842.659973,0,0,103,2101,none,,,,,,,,1,1647554687.600,288700.4,277.1391,2022-03-21 14:16:28,29098,interpolated,454,interpolated,104.77,interpolated,2.64,interpolated,0.53,interpolated,-0.1,interpolated,-0.0625,interpolated,-0.1,interpolated,0.989654,interpolated,0.049,observed,-0.0142,observed,0.7,observed,2.11,observed,-3.75,observed,-3.34,observed,-2.25,observed,3.62,observed,-1,interpolated,2592,interpolated,2560,interpolated,83.38,interpolated,83.38,interpolated,92.375,interpolated,92.25,interpolated,RUN,nearest,RUN,nearest
track,1,0,MU5735,KMG-CAN,B1791,B738,2022-03-21 14:16:29,2022-03-21T06:16:29Z,1647843389.000,110.278069,23.445061,29100,8869.679688,455,842.659973,0,0,103,2101,none,,,,,,,,1,1647554687.600,288701.4,276.1391,2022-03-21 14:16:29,29097.7516,interpolated,454,interpolated,104.77,interpolated,2.534808,interpolated,0.443096,interpolated,-0.14408,interpolated,0,interpolated,0,interpolated,0.9882,interpolated,0.049,observed,-0.0142,observed,0.7,observed,2.11,observed,-3.7,observed,-3.34,observed,-2.34,observed,3.71,observed,-1,interpolated,2592,interpolated,2560,interpolated,83.38,interpolated,83.38,interpolated,92.375,interpolated,92.25,interpolated,RUN,nearest,RUN,nearest
track,1,0,MU5735,KMG-CAN,B1791,B738,2022-03-21 14:16:30,2022-03-21T06:16:30Z,1647843390.000,110.280762,23.44445,29100,8869.679688,455,842.659973,0,0,103,2101,nearest,0.494,2022-03-21 06:16:30Z.494,P,29100,455,102,0,1,1647554687.600,288702.4,275.1391,2022-03-21 14:16:30,29098.2484,interpolated,454,interpolated,104.77,interpolated,2.46,interpolated,0.35,interpolated,-0.1,interpolated,-0.0625,interpolated,-0.1,interpolated,0.9882,interpolated,0.049,observed,-0.0142,observed,0.68,observed,2.11,observed,-3.64,observed,-3.39,observed,-2.34,observed,3.71,observed,-1,interpolated,,missing,2560,interpolated,,missing,83.38,interpolated,92.375,interpolated,92.25,interpolated,RUN,nearest,RUN,nearest
track,1,0,MU5735,KMG-CAN,B1791,B738,2022-03-21 14:16:31,2022-03-21T06:16:31Z,1647843391.000,110.283012,23.444,29100,8869.679688,455,842.659973,0,0,103,2101,nearest,0.506,2022-03-21 06:16:30Z.494,P,29100,455,102,0,1,1647554687.600,288703.4,274.1391,2022-03-21 14:16:31,,missing,,missing,,missing,,missing,,missing,,missing,,missing,,missing,,missing,,missing,,missing,,missing,,missing,,missing,,missing,,missing,,missing,,missing,,missing,2560,interpolated,,missing,83.38,interpolated,92.375,interpolated,92.25,interpolated,RUN,nearest,RUN,nearest
track,1,0,MU5735,KMG-CAN,B1791,B738,2022-03-21 14:16:32,2022-03-21T06:16:32Z,1647843392.000,110.284317,23.44371,29100,8869.679688,455,842.659973,0,0,103,2101,none,,,,,,,,1,1647554687.600,288704.4,273.1391,2022-03-21 14:16:32,,missing,,missing,,missing,,missing,,missing,,missing,,missing,,missing,0.986746,interpolated,0.0469,observed,-0.0162,observed,0.7,observed,2.11,observed,-3.7,observed,-3.34,observed,-2.34,observed,3.71,observed,,missing,,missing,2560,interpolated,,missing,83.38,interpolated,92.375,interpolated,92.25,interpolated,RUN,nearest,RUN,nearest
track,1,0,MU5735,KMG-CAN,B1791,B738,2022-03-21 14:16:33,2022-03-21T06:16:33Z,1647843393.000,110.286552,23.44322,29100,8869.679688,455,842.659973,0,0,103,2101,none,,,,,,,,1,1647554687.600,288705.4,272.1391,2022-03-21 14:16:33,29100,interpolated,454,interpolated,104.77,interpolated,2.46,interpolated,0.35,interpolated,0.04408,interpolated,-0.0625,interpolated,-0.1,interpolated,0.9928,interpolated,0.049,observed,-0.0142,observed,0.7,observed,2.11,observed,-3.75,observed,-3.34,observed,-2.3,observed,3.71,observed,-1,interpolated,2592,interpolated,2560,interpolated,83.38,interpolated,83.38,interpolated,92.375,interpolated,92.25,interpolated,RUN,nearest,RUN,nearest
track,1,0,MU5735,KMG-CAN,B1791,B738,2022-03-21 14:16:34,2022-03-21T06:16:34Z,1647843394.000,110.289658,23.442591,29100,8869.679688,455,842.659973,0,0,103,2101,none,,,,,,,,1,1647554687.600,288706.4,271.1391,2022-03-21 14:16:34,29099.7516,interpolated,454,interpolated,104.77,interpolated,2.46,interpolated,0.35,interpolated,-0.14408,interpolated,0,interpolated,0,interpolated,0.991346,interpolated,0.0469,observed,-0.0142,observed,0.7,observed,2.46,observed,-3.7,observed,-3.34,observed,-2.39,observed,3.76,observed,-1,interpolated,2589.412798,interpolated,2560,interpolated,83.38,interpolated,83.38,interpolated,92.375,interpolated,92.25,interpolated,RUN,nearest,RUN,nearest
track,1,0,MU5735,KMG-CAN,B1791,B738,2022-03-21 14:16:35,2022-03-21T06:16:35Z,1647843395.000,110.291901,23.44212,29100,8869.679688,455,842.659973,64,0,103,2101,nearest,0.762,2022-03-21 06:16:35Z.762,P,29100,455,102,64,1,1647554687.600,288707.4,270.1391,2022-03-21 14:16:35,29100,interpolated,454,interpolated,104.77,interpolated,2.46,interpolated,0.18,interpolated,-0.1,interpolated,0,interpolated,0,interpolated,0.992156,interpolated,0.0469,observed,-0.0162,observed,0.7,observed,2.81,observed,-3.7,observed,-3.34,observed,-2.44,observed,3.81,observed,-1,interpolated,2578.587202,interpolated,2560,interpolated,83.38,interpolated,83.38,interpolated,92.375,interpolated,92.25,interpolated,RUN,nearest,RUN,nearest
track,1,0,MU5735,KMG-CAN,B1791,B738,2022-03-21 14:16:36,2022-03-21T06:16:36Z,1647843396.000,110.293701,23.44171,29100,8869.679688,455,842.659973,64,0,103,2101,nearest,0.238,2022-03-21 06:16:35Z.762,P,29100,455,102,64,1,1647554687.600,288708.4,269.1391,2022-03-21 14:16:36,29100.7516,interpolated,454,interpolated,104.77,interpolated,2.46,interpolated,0.18,interpolated,0,interpolated,-0.03885,interpolated,-0.06216,interpolated,0.9928,interpolated,0.0469,observed,-0.0162,observed,0.68,observed,2.81,observed,-3.75,observed,-3.39,observed,-2.49,observed,3.81,observed,-1,interpolated,2592,interpolated,2560,interpolated,83.38,interpolated,83.38,interpolated,92.375,interpolated,92.301463,interpolated,RUN,nearest,RUN,nearest
track,1,0,MU5735,KMG-CAN,B1791,B738,2022-03-21 14:16:37,2022-03-21T06:16:37Z,1647843397.000,110.296387,23.44116,29100,8869.679688,455,842.659973,64,0,103,2101,none,,,,,,,,1,1647554687.600,288709.4,268.1391,2022-03-21 14:16:37,29102,interpolated,454,interpolated,104.77,interpolated,2.46,interpolated,0.18,interpolated,0.1,interpolated,-0.03885,interpolated,-0.06216,interpolated,0.9882,interpolated,0.049,observed,-0.0142,observed,0.66,observed,2.81,observed,-3.75,observed,-3.39,observed,-2.49,observed,3.81,observed,-1,interpolated,2594.587202,interpolated,2570.587202,interpolated,83.402452,interpolated,83.462452,interpolated,92.375,interpolated,92.375,interpolated,RUN,nearest,RUN,nearest
track,1,0,MU5735,KMG-CAN,B1791,B738,2022-03-21 14:16:38,2022-03-21T06:16:38Z,1647843398.000,110.297699,23.44087,29100,8869.679688,455,842.659973,64,0,103,2101,none,,,,,,,,1,1647554687.600,288710.4,267.1391,2022-03-21 14:16:38,29102.2484,interpolated,454,interpolated,104.77,interpolated,2.46,interpolated,0.18,interpolated,-0.1,interpolated,0,interpolated,0,interpolated,0.9836,interpolated,0.0469,observed,-0.0142,observed,0.66,observed,2.81,observed,-3.75,observed,-3.39,observed,-2.49,observed,3.81,observed,-1,interpolated,,missing,2586.587202,interpolated,,missing,83.5,interpolated,92.375,interpolated,92.375,interpolated,RUN,nearest,RUN,nearest
track,1,0,MU5735,KMG-CAN,B1791,B738,2022-03-21 14:16:39,2022-03-21T06:16:39Z,1647843399.000,110.299942,23.44038,29100,8869.679688,455,842.659973,64,0,103,2101,none,,,,,,,,1,1647554687.600,288711.4,266.1391,2022-03-21 14:16:39,,missing,,missing,,missing,,missing,,missing,,missing,,missing,,missing,,missing,,missing,,missing,,missing,,missing,,missing,,missing,,missing,,missing,,missing,,missing,2592,interpolated,,missing,83.5,interpolated,92.375,interpolated,92.375,interpolated,RUN,nearest,RUN,nearest
track,1,0,MU5735,KMG-CAN,B1791,B738,2022-03-21 14:16:40,2022-03-21T06:16:40Z,1647843400.000,110.303093,23.439751,29100,8869.679688,455,842.659973,0,0,103,2101,none,,,,,,,,1,1647554687.600,288712.4,265.1391,2022-03-21 14:16:40,,missing,,missing,,missing,,missing,,missing,,missing,,missing,,missing,0.978393,interpolated,0.0469,observed,-0.0142,observed,0.64,observed,2.46,observed,-3.8,observed,-3.44,observed,-2.39,observed,3.76,observed,,missing,,missing,2592,interpolated,,missing,83.5,interpolated,92.375,interpolated,92.375,interpolated,RUN,nearest,RUN,nearest
track,1,0,MU5735,KMG-CAN,B1791,B738,2022-03-21 14:16:41,2022-03-21T06:16:41Z,1647843401.000,110.304871,23.439381,29100,8869.679688,455,842.659973,0,0,103,2101,none,,,,,,,,1,1647554687.600,288713.4,264.1391,2022-03-21 14:16:41,29104.2484,interpolated,454,interpolated,104.77,interpolated,2.46,interpolated,0.35,interpolated,-0.05592,interpolated,0,interpolated,0,interpolated,0.977546,interpolated,0.0469,observed,-0.0162,observed,0.64,observed,2.46,observed,-3.85,observed,-3.44,observed,-2.39,observed,3.76,observed,-1,interpolated,2608,interpolated,2592,interpolated,83.63,interpolated,83.5,interpolated,92.375,interpolated,92.375,interpolated,RUN,nearest,RUN,nearest
track,1,0,MU5735,KMG-CAN,B1791,B738,2022-03-21 14:16:42,2022-03-21T06:16:42Z,1647843402.000,110.306648,23.439011,29100,8869.679688,455,842.659973,0,0,103,2101,none,,,,,,,,1,1647554687.600,288714.4,263.1391,2022-03-21 14:16:42,29103,interpolated,454,interpolated,104.77,interpolated,2.46,interpolated,0.35,interpolated,0,interpolated,0,interpolated,0,interpolated,0.9813,interpolated,0.0469,observed,-0.0142,observed,0.64,observed,2.46,observed,-3.8,observed,-3.44,observed,-2.39,observed,3.76,observed,-1,interpolated,2608,interpolated,2592,interpolated,83.63,interpolated,83.589323,interpolated,92.488963,interpolated,92.375,interpolated,RUN,nearest,RUN,nearest
track,1,0,MU5735,KMG-CAN,B1791,B738,2022-03-21 14:16:43,2022-03-21T06:16:43Z,1647843403.000,110.309303,23.43845,29100,8869.679688,455,842.659973,0,0,103,2101,none,,,,,,,,1,1647554687.600,288715.4,262.1391,2022-03-21 14:16:43,29103,interpolated,454,interpolated,104.77,interpolated,2.46,interpolated,0.436904,interpolated,0.1,interpolated,-0.0625,interpolated,-0.1,interpolated,0.979,interpolated,0.0469,observed,-0.0121,observed,0.64,observed,2.11,observed,-3.8,observed,-3.44,observed,-2.34,observed,3.71,observed,-1,interpolated,2608,interpolated,2592,interpolated,83.63,interpolated,83.63,interpolated,92.5,interpolated,92.375,interpolated,RUN,nearest,RUN,nearest
track,1,0,MU5735,KMG-CAN,B1791,B738,2022-03-21 14:16:44,2022-03-21T06:16:44Z,1647843404.000,110.311127,23.43803,29100,8869.679688,455,842.659973,-64,0,103,2101,none,,,,,,,,1,1647554687.600,288716.4,261.1391,2022-03-21 14:16:44,29103,interpolated,454,interpolated,104.77,interpolated,2.46,interpolated,0.53,interpolated,-0.1,interpolated,-0.0625,interpolated,-0.1,interpolated,0.9813,interpolated,0.0469,observed,-0.0142,observed,0.66,observed,2.11,observed,-3.75,observed,-3.39,observed,-2.3,observed,3.66,observed,-1,interpolated,2608,interpolated,2581.412798,interpolated,83.652452,interpolated,83.63,interpolated,92.5,interpolated,92.375,interpolated,RUN,nearest,RUN,nearest
track,1,0,MU5735,KMG-CAN,B1791,B738,2022-03-21 14:16:45,2022-03-21T06:16:45Z,1647843405.000,110.313316,23.43759,29100,8869.679688,455,842.659973,-64,0,103,2101,none,,,,,,,,1,1647554687.600,288717.4,260.1391,2022-03-21 14:16:45,29101.7516,interpolated,454,interpolated,104.77,interpolated,2.46,interpolated,0.35,interpolated,-0.1,interpolated,0,interpolated,0,interpolated,0.985054,interpolated,0.0469,observed,-0.0121,observed,0.66,observed,2.11,observed,-3.8,observed,-3.44,observed,-2.34,observed,3.71,observed,-1,interpolated,2608,interpolated,2576,interpolated,83.727548,interpolated,83.63,interpolated,92.5,interpolated,92.375,interpolated,RUN,nearest,RUN,nearest
track,1,0,MU5735,KMG-CAN,B1791,B738,2022-03-21 14:16:46,2022-03-21T06:16:46Z,1647843406.000,110.316467,23.436911,29100,8869.679688,455,842.659973,-64,0,103,2101,none,,,,,,,,1,1647554687.600,288718.4,259.1391,2022-03-21 14:16:46,29101,interpolated,454,interpolated,104.77,interpolated,2.46,interpolated,0.35,interpolated,-0.1,interpolated,-0.0625,interpolated,-0.1,interpolated,0.9859,interpolated,0.049,observed,-0.0142,observed,0.68,observed,2.11,observed,-3.75,observed,-3.44,observed,-2.34,observed,3.71,observed,-1,interpolated,,missing,2586.587202,interpolated,,missing,83.63,interpolated,92.5,interpolated,92.375,interpolated,RUN,nearest,RUN,nearest
track,1,0,MU5735,KMG-CAN,B1791,B738,2022-03-21 14:16:47,2022-03-21T06:16:47Z,1647843407.000,110.317818,23.43663,29100,8869.679688,455,842.659973,-64,0,103,2101,none,,,,,,,,1,1647554687.600,288719.4,258.1391,2022-03-21 14:16:47,,missing,,missing,,missing,,missing,,missing,,missing,,missing,,missing,,missing,,missing,,missing,,missing,,missing,,missing,,missing,,missing,,missing,,missing,,missing,2592,interpolated,,missing,83.63,interpolated,92.5,interpolated,92.375,interpolated,RUN,nearest,RUN,nearest
track,1,0,MU5735,KMG-CAN,B1791,B738,2022-03-21 14:16:48,2022-03-21T06:16:48Z,1647843408.000,110.320892,23.43598,29100,8869.679688,455,842.659973,-64,0,103,2101,none,,,,,,,,1,1647554687.600,288720.4,257.1391,2022-03-21 14:16:48,,missing,,missing,,missing,,missing,,missing,,missing,,missing,,missing,0.9882,interpolated,0.0469,observed,-0.0142,observed,0.68,observed,2.46,observed,-3.75,observed,-3.39,observed,-2.34,observed,3.71,observed,,missing,,missing,2592,interpolated,,missing,83.63,interpolated,92.5,interpolated,92.375,interpolated,RUN,nearest,RUN,nearest
track,1,0,MU5735,KMG-CAN,B1791,B738,2022-03-21 14:16:49,2022-03-21T06:16:49Z,1647843409.000,110.322258,23.435671,29100,8869.679688,455,842.659973,-64,0,103,2101,none,,,,,,,,1,1647554687.600,288721.4,256.1391,2022-03-21 14:16:49,29098,interpolated,454,interpolated,104.77,interpolated,2.64,interpolated,0.35,interpolated,0,interpolated,-0.0625,interpolated,-0.1,interpolated,0.989046,interpolated,0.0469,observed,-0.0142,observed,0.68,observed,2.11,observed,-3.7,observed,-3.34,observed,-2.3,observed,3.71,observed,-1,interpolated,2610.587202,interpolated,2592,interpolated,83.63,interpolated,83.63,interpolated,92.5,interpolated,92.375,interpolated,RUN,nearest,RUN,nearest
track,1,0,MU5735,KMG-CAN,B1791,B738,2022-03-21 14:16:50,2022-03-21T06:16:50Z,1647843410.000,110.324959,23.43512,29100,8869.679688,455,842.659973,-64,0,103,2101,none,,,,,,,,1,1647554687.600,288722.4,255.1391,2022-03-21 14:16:50,29097,interpolated,454,interpolated,104.77,interpolated,2.64,interpolated,0.436904,interpolated,0.1,interpolated,-0.0625,interpolated,-0.1,interpolated,0.9882,interpolated,0.049,observed,-0.0121,observed,0.68,observed,1.76,observed,-3.8,observed,-3.34,observed,-2.25,observed,3.62,observed,-1,interpolated,2621.412798,interpolated,2592,interpolated,83.63,interpolated,83.63,interpolated,92.5,interpolated,92.375,interpolated,RUN,nearest,RUN,nearest
track,1,0,MU5735,KMG-CAN,B1791,B738,2022-03-21 14:16:51,2022-03-21T06:16:51Z,1647843411.000,110.327148,23.434629,29100,8869.679688,455,842.659973,-64,0,103,2101,nearest,0.362,2022-03-21 06:16:51Z.362,P,29100,455,102,-64,1,1647554687.600,288723.4,254.1391,2022-03-21 14:16:51,29096,interpolated,454,interpolated,104.77,interpolated,2.64,interpolated,0.53,interpolated,-0.14408,interpolated,-0.0625,interpolated,-0.1,interpolated,0.985293,interpolated,0.049,observed,-0.0142,observed,0.68,observed,1.41,observed,-3.75,observed,-3.34,observed,-2.15,observed,3.52,observed,-1,interpolated,2608,interpolated,2592,interpolated,83.63,interpolated,83.63,interpolated,92.5,interpolated,92.375,interpolated,RUN,nearest,RUN,nearest
track,1,0,MU5735,KMG-CAN,B1791,B738,2022-03-21 14:16:52,2022-03-21T06:16:52Z,1647843412.000,110.328934,23.434259,29100,8869.679688,455,842.659973,-64,0,103,2101,nearest,0.638,2022-03-21 06:16:51Z.362,P,29100,455,102,-64,1,1647554687.600,288724.4,253.1391,2022-03-21 14:16:52,29095.7516,interpolated,454,interpolated,104.77,interpolated,2.64,interpolated,0.267924,interpolated,-0.4,interpolated,-0.08615,interpolated,-0.1,interpolated,0.9996,interpolated,0.049,observed,-0.0162,observed,0.7,observed,-1.76,observed,-3.75,observed,-3.39,observed,-1.39,observed,2.84,observed,-1,interpolated,2608,interpolated,2592,interpolated,83.63,interpolated,83.63,interpolated,92.5,interpolated,92.375,interpolated,RUN,nearest,RUN,nearest
track,1,0,MU5735,KMG-CAN,B1791,B738,2022-03-21 14:16:53,2022-03-21T06:16:53Z,1647843413.000,110.3312,23.43379,29100,8869.679688,455,842.659973,-64,0,103,2101,none,,,,,,,,1,1647554687.600,288725.4,252.1391,2022-03-21 14:16:53,29094.7516,interpolated,454,interpolated,104.77,interpolated,2.64,interpolated,-0.51898,interpolated,-1.46776,interpolated,-0.16385,interpolated,-0.16216,interpolated,0.9973,interpolated,0.049,observed,-0.0142,observed,0.73,observed,-6.33,observed,-3.7,observed,-3.34,observed,-0.37,observed,1.8,observed,-1,interpolated,2610.587202,interpolated,2592,interpolated,83.652452,interpolated,83.63,interpolated,92.5,interpolated,92.375,interpolated,RUN,nearest,RUN,nearest
track,1,0,MU5735,KMG-CAN,B1791,B738,2022-03-21 14:16:54,2022-03-21T06:16:54Z,1647843414.000,110.33432,23.43314,29100,8869.679688,455,842.659973,-64,0,103,2101,none,,,,,,,,1,1647554687.600,288726.4,251.1391,2022-03-21 14:16:54,29094,interpolated,454,interpolated,104.649616,interpolated,2.64,interpolated,-2.44796,interpolated,-2.35592,interpolated,-0.25,interpolated,-0.3,interpolated,1.000446,interpolated,0.049,observed,-0.0101,observed,0.73,observed,-8.79,observed,-3.7,observed,-3.29,observed,0.21,observed,1.19,observed,-1,interpolated,,missing,2581.412798,interpolated,,missing,83.63,interpolated,92.5,interpolated,92.375,interpolated,RUN,nearest,RUN,nearest
track,1,0,MU5735,KMG-CAN,B1791,B738,2022-03-21 14:16:55,2022-03-21T06:16:55Z,1647843415.000,110.33654,23.43269,29100,8869.679688,454,840.807983,0,0,103,2101,none,,,,,,,,1,1647554687.600,288727.4,250.1391,2022-03-21 14:16:55,,missing,,missing,,missing,,missing,,missing,,missing,,missing,,missing,,missing,,missing,,missing,,missing,,missing,,missing,,missing,,missing,,missing,,missing,,missing,2576,interpolated,,missing,83.63,interpolated,92.5,interpolated,92.375,interpolated,RUN,nearest,RUN,nearest
track,1,0,MU5735,KMG-CAN,B1791,B738,2022-03-21 14:16:56,2022-03-21T06:16:56Z,1647843416.000,110.338799,23.432261,29100,8869.679688,455,842.659973,0,0,102,2101,none,,,,,,,,1,1647554687.600,288728.4,249.1391,2022-03-21 14:16:56,,missing,,missing,,missing,,missing,,missing,,missing,,missing,,missing,1.0065,interpolated,0.051,observed,-0.0101,observed,0.79,observed,-3.87,observed,-3.59,observed,-3.29,observed,-0.89,observed,2.34,observed,,missing,,missing,2576,interpolated,,missing,83.63,interpolated,92.5,interpolated,92.375,interpolated,RUN,nearest,RUN,nearest
track,1,0,MU5735,KMG-CAN,B1791,B738,2022-03-21 14:16:57,2022-03-21T06:16:57Z,1647843417.000,110.340584,23.431881,29100,8869.679688,454,840.807983,0,0,102,2101,none,,,,,,,,1,1647554687.600,288729.4,248.1391,2022-03-21 14:16:57,29095,interpolated,453.5,interpolated,103.59296,interpolated,2.81,interpolated,-8.60898,interpolated,-0.98816,interpolated,-0.52365,interpolated,-0.53784,interpolated,1.009646,interpolated,0.051,observed,-0.0121,observed,0.77,observed,-0.7,observed,-3.64,observed,-3.24,observed,-1.6,observed,3.03,observed,-1,interpolated,2608,interpolated,2576,interpolated,83.63,interpolated,83.63,interpolated,92.5,interpolated,92.375,interpolated,RUN,nearest,RUN,nearest
track,1,0,MU5735,KMG-CAN,B1791,B738,2022-03-21 14:16:58,2022-03-21T06:16:58Z,1647843418.000,110.343269,23.431419,29100,8869.679688,455,842.659973,64,0,102,2101,none,,,,,,,,1,1647554687.600,288730.4,247.1391,2022-03-21 14:16:58,29095.2484,interpolated,453.5,interpolated,103.01,interpolated,2.81,interpolated,-9.32,interpolated,-0.44408,interpolated,-0.5,interpolated,-0.5,interpolated,1.0134,interpolated,0.051,observed,-0.0101,observed,0.68,observed,1.05,observed,-3.75,observed,-3.39,observed,-1.95,observed,3.37,observed,-1,interpolated,2608,interpolated,2576,interpolated,83.652452,interpolated,83.63,interpolated,92.5,interpolated,92.375,interpolated,RUN,nearest,RUN,nearest
track,1,0,MU5735,KMG-CAN,B1791,B738,2022-03-21 14:17:00,2022-03-21T06:17:00Z,1647843420.000,110.346832,23.430771,29100,8869.679688,455,842.659973,64,0,101,2101,none,,,,,,,,1,1647554687.600,288732.4,245.1391,2022-03-21 14:17:00,29097.7516,interpolated,453.5,interpolated,101.95,interpolated,2.81,interpolated,-8.703096,interpolated,1.25592,interpolated,-0.4375,interpolated,-0.4,interpolated,1.021046,interpolated,0.051,observed,-0.0162,observed,0.46,observed,8.09,observed,-4.1,observed,-3.64,observed,-3.57,observed,4.93,observed,-1,interpolated,2610.587202,interpolated,2581.412798,interpolated,83.63,interpolated,83.540677,interpolated,92.5,interpolated,92.448537,interpolated,RUN,nearest,RUN,nearest
track,1,0,MU5735,KMG-CAN,B1791,B738,2022-03-21 14:17:01,2022-03-21T06:17:01Z,1647843421.000,110.349083,23.430401,29100,8869.679688,455,842.659973,64,0,101,2101,nearest,0.876,2022-03-21 06:17:01Z.876,P,29100,455,100,64,1,1647554687.600,288733.4,244.1391,2022-03-21 14:17:01,29099.2484,interpolated,453.5,interpolated,101.6,interpolated,2.81,interpolated,-7.21102,interpolated,1.85592,interpolated,-0.3125,interpolated,-0.3,interpolated,1.010254,interpolated,0.051,observed,-0.0162,observed,0.37,observed,10.9,observed,-4.25,observed,-3.8,observed,-4.24,observed,5.49,observed,-1,interpolated,2621.412798,interpolated,2576,interpolated,83.652452,interpolated,83.589323,interpolated,92.5,interpolated,92.426463,interpolated,RUN,nearest,RUN,nearest
track,1,0,MU5735,KMG-CAN,B1791,B738,2022-03-21 14:17:02,2022-03-21T06:17:02Z,1647843422.000,110.351768,23.429951,29100,8869.679688,454,840.807983,128,0,101,2101,nearest,0.124,2022-03-21 06:17:01Z.876,P,29100,455,100,64,1,1647554687.600,288734.4,243.1391,2022-03-21 14:17:02,29101.2484,interpolated,453.3876,interpolated,101.48296,interpolated,2.81,interpolated,-5.018944,interpolated,2.35592,interpolated,-0.1875,interpolated,-0.2,interpolated,0.9928,interpolated,0.049,observed,-0.0182,observed,0.33,observed,11.6,observed,-4.25,observed,-3.9,observed,-4.38,observed,5.63,observed,-1,interpolated,,missing,2586.587202,interpolated,,missing,83.63,interpolated,92.5,interpolated,92.448537,interpolated,RUN,nearest,RUN,nearest
track,1,0,MU5735,KMG-CAN,B1791,B738,2022-03-21 14:17:03,2022-03-21T06:17:03Z,1647843423.000,110.35405,23.4296,29100,8869.679688,454,840.807983,128,0,100,2101,none,,,,,,,,1,1647554687.600,288735.4,242.1391,2022-03-21 14:17:03,,missing,,missing,,missing,,missing,,missing,,missing,,missing,,missing,,missing,,missing,,missing,,missing,,missing,,missing,,missing,,missing,,missing,,missing,,missing,2586.706399,interpolated,,missing,83.585338,interpolated,92.5,interpolated,92.375,interpolated,RUN,nearest,RUN,nearest
track,1,0,MU5735,KMG-CAN,B1791,B738,2022-03-21 14:17:04,2022-03-21T06:17:04Z,1647843424.000,110.355827,23.429279,29100,8869.679688,454,840.807983,128,0,100,2101,none,,,,,,,,1,1647554687.600,288736.4,241.1391,2022-03-21 14:17:04,,missing,,missing,,missing,,missing,,missing,,missing,,missing,,missing,0.980454,interpolated,0.049,observed,-0.0162,observed,0.26,observed,5.98,observed,-4.41,observed,-3.95,observed,-3.23,observed,4.52,observed,,missing,,missing,2578.706399,interpolated,,missing,83.520338,interpolated,92.5,interpolated,92.375,interpolated,RUN,nearest,RUN,nearest
track,1,0,MU5735,KMG-CAN,B1791,B738,2022-03-21 14:17:05,2022-03-21T06:17:05Z,1647843425.000,110.359909,23.428671,29100,8869.679688,454,840.807983,128,0,100,2101,none,,,,,,,,1,1647554687.600,288737.4,240.1391,2022-03-21 14:17:05,29109,interpolated,453,interpolated,101.25,interpolated,2.64,interpolated,-0.093096,interpolated,0.6,interpolated,0,interpolated,0,interpolated,0.978154,interpolated,0.049,observed,-0.0142,observed,0.26,observed,4.57,observed,-4.41,observed,-3.95,observed,-2.84,observed,4.2,observed,-1,interpolated,2608,interpolated,2576,interpolated,83.75,interpolated,83.589323,interpolated,92.5,interpolated,92.375,interpolated,RUN,nearest,RUN,nearest
track,1,0,MU5735,KMG-CAN,B1791,B738,2022-03-21 14:17:06,2022-03-21T06:17:06Z,1647843426.000,110.361229,23.42844,29100,8869.679688,454,840.807983,128,0,100,2101,none,,,,,,,,1,1647554687.600,288738.4,239.1391,2022-03-21 14:17:06,29110.2484,interpolated,453,interpolated,101.25,interpolated,2.64,interpolated,0.436904,interpolated,0.3,interpolated,0,interpolated,0,interpolated,0.970746,interpolated,0.0469,observed,-0.0162,observed,0.29,observed,3.16,observed,-4.35,observed,-3.95,observed,-2.54,observed,3.91,observed,-1,interpolated,2608,interpolated,2576,interpolated,83.75,interpolated,83.540677,interpolated,92.5,interpolated,92.375,interpolated,RUN,nearest,RUN,nearest
track,1,0,MU5735,KMG-CAN,B1791,B738,2022-03-21 14:17:07,2022-03-21T06:17:07Z,1647843427.000,110.36261,23.428209,29100,8869.679688,454,840.807983,64,0,100,2101,none,,,,,,,,1,1647554687.600,288739.4,238.1391,2022-03-21 14:17:07,29111.7516,interpolated,453,interpolated,101.25,interpolated,2.64,interpolated,0.53,interpolated,0,interpolated,0,interpolated,0,interpolated,0.9744,interpolated,0.049,observed,-0.0142,observed,0.29,observed,2.46,observed,-4.41,observed,-3.95,observed,-2.44,observed,3.81,observed,-1,interpolated,2608,interpolated,2576,interpolated,83.727548,interpolated,83.589323,interpolated,92.5,interpolated,92.375,interpolated,RUN,nearest,RUN,nearest
track,1,0,MU5735,KMG-CAN,B1791,B738,2022-03-21 14:17:08,2022-03-21T06:17:08Z,1647843428.000,110.365753,23.427691,29125,8877.299805,454,840.807983,0,1500.000592,100,2101,none,,,,,,,,1,1647554687.600,288740.4,237.1391,2022-03-21 14:17:08,29111.7516,interpolated,453,interpolated,101.25,interpolated,2.46,interpolated,0.53,interpolated,-0.1,interpolated,0,interpolated,0,interpolated,0.977546,interpolated,0.049,observed,-0.0142,observed,0.31,observed,2.46,observed,-4.35,observed,-3.9,observed,-2.39,observed,3.76,observed,-1,interpolated,2608,interpolated,2576,interpolated,83.63,interpolated,83.540677,interpolated,92.5,interpolated,92.375,interpolated,RUN,nearest,RUN,nearest
track,1,0,MU5735,KMG-CAN,B1791,B738,2022-03-21 14:17:09,2022-03-21T06:17:09Z,1647843429.000,110.367531,23.42741,29100,8869.679688,454,840.807983,0,-1499.999649,100,2101,none,,,,,,,,1,1647554687.600,288741.4,236.1391,2022-03-21 14:17:09,29112,interpolated,453,interpolated,101.25,interpolated,2.46,interpolated,0.35,interpolated,-0.3,interpolated,0,interpolated,0,interpolated,0.979,interpolated,0.0469,observed,-0.0142,observed,0.31,observed,2.81,observed,-4.3,observed,-3.9,observed,-2.44,observed,3.81,observed,-1,interpolated,2610.587202,interpolated,2576,interpolated,83.652452,interpolated,83.589323,interpolated,92.5,interpolated,92.375,interpolated,RUN,nearest,RUN,nearest
track,1,0,MU5735,KMG-CAN,B1791,B738,2022-03-21 14:17:10,2022-03-21T06:17:10Z,1647843430.000,110.370232,23.42695,29100,8869.679688,454,840.807983,0,0,100,2101,none,,,,,,,,1,1647554687.600,288742.4,235.1391,2022-03-21 14:17:10,29112,interpolated,453,interpolated,101.25,interpolated,2.46,interpolated,0.18,interpolated,-0.1,interpolated,0,interpolated,0,interpolated,0.979,interpolated,0.049,observed,-0.0142,observed,0.33,observed,2.81,observed,-4.3,observed,-3.9,observed,-2.49,observed,3.86,observed,-1,interpolated,,missing,2586.587202,interpolated,,missing,83.540677,interpolated,92.5,interpolated,92.375,interpolated,RUN,nearest,RUN,nearest
track,1,0,MU5735,KMG-CAN,B1791,B738,2022-03-21 14:17:11,2022-03-21T06:17:11Z,1647843431.000,110.372498,23.426611,29100,8869.679688,454,840.807983,0,0,100,2101,none,,,,,,,,1,1647554687.600,288743.4,234.1391,2022-03-21 14:17:11,,missing,,missing,,missing,,missing,,missing,,missing,,missing,,missing,,missing,,missing,,missing,,missing,,missing,,missing,,missing,,missing,,missing,,missing,,missing,2586.706399,interpolated,,missing,83.544662,interpolated,92.5,interpolated,92.375,interpolated,RUN,nearest,RUN,nearest
track,1,0,MU5735,KMG-CAN,B1791,B738,2022-03-21 14:17:12,2022-03-21T06:17:12Z,1647843432.000,110.374763,23.42625,29100,8869.679688,454,840.807983,0,0,100,2101,nearest,0.520,2022-03-21 06:17:12Z.520,P,29100,454,100,0,1,1647554687.600,288744.4,233.1391,2022-03-21 14:17:12,,missing,,missing,,missing,,missing,,missing,,missing,,missing,,missing,0.9813,interpolated,0.049,observed,-0.0142,observed,0.33,observed,2.81,observed,-4.3,observed,-3.9,observed,-2.49,observed,3.86,observed,,missing,,missing,2578.706399,interpolated,,missing,83.609662,interpolated,92.5,interpolated,92.375,interpolated,RUN,nearest,RUN,nearest
track,1,0,MU5735,KMG-CAN,B1791,B738,2022-03-21 14:17:13,2022-03-21T06:17:13Z,1647843433.000,110.376541,23.42597,29100,8869.679688,454,840.807983,0,0,100,2101,nearest,0.480,2022-03-21 06:17:12Z.520,P,29100,454,100,0,1,1647554687.600,288745.4,232.1391,2022-03-21 14:17:13,29112,interpolated,453,interpolated,101.25,interpolated,2.46,interpolated,0.18,interpolated,0,interpolated,0,interpolated,0,interpolated,0.9813,interpolated,0.049,observed,-0.0142,observed,0.33,observed,2.81,observed,-4.3,observed,-3.9,observed,-2.44,observed,3.81,observed,-1,interpolated,2608,interpolated,2576,interpolated,83.727548,interpolated,83.63,interpolated,92.5,interpolated,92.375,interpolated,RUN,nearest,RUN,nearest
track,1,0,MU5735,KMG-CAN,B1791,B738,2022-03-21 14:17:14,2022-03-21T06:17:14Z,1647843434.000,110.378792,23.4256,29100,8869.679688,454,840.807983,-64,0,100,2101,none,,,,,,,,1,1647554687.600,288746.4,231.1391,2022-03-21 14:17:14,29111,interpolated,453.5,interpolated,101.25,interpolated,2.46,interpolated,0.18,interpolated,0,interpolated,-0.03885,interpolated,-0.06216,interpolated,0.9859,interpolated,0.049,observed,-0.0142,observed,0.33,observed,2.46,observed,-4.3,observed,-3.9,observed,-2.44,observed,3.81,observed,-1,interpolated,2608,interpolated,2576,interpolated,83.652452,interpolated,83.63,interpolated,92.5,interpolated,92.426463,interpolated,RUN,nearest,RUN,nearest
track,1,0,MU5735,KMG-CAN,B1791,B738,2022-03-21 14:17:15,2022-03-21T06:17:15Z,1647843435.000,110.381493,23.42514,29100,8869.679688,454,840.807983,-64,0,100,2101,none,,,,,,,,1,1647554687.600,288747.4,230.1391,2022-03-21 14:17:15,29110.2484,interpolated,453.5,interpolated,101.25,interpolated,2.46,interpolated,0.35,interpolated,0.1,interpolated,-0.0625,interpolated,-0.1,interpolated,0.985054,interpolated,0.049,observed,-0.0142,observed,0.33,observed,2.46,observed,-4.3,observed,-3.9,observed,-2.39,observed,3.76,observed,-1,interpolated,2608,interpolated,2586.587202,interpolated,83.727548,interpolated,83.63,interpolated,92.5,interpolated,92.5,interpolated,RUN,nearest,RUN,nearest
track,1,0,MU5735,KMG-CAN,B1791,B738,2022-03-21 14:17:16,2022-03-21T06:17:16Z,1647843436.000,110.383759,23.42481,29100,8869.679688,454,840.807983,-64,0,100,2101,none,,,,,,,,1,1647554687.600,288748.4,229.1391,2022-03-21 14:17:16,29109,interpolated,453.5,interpolated,101.25,interpolated,2.46,interpolated,0.35,interpolated,0.04408,interpolated,-0.0625,interpolated,-0.1,interpolated,0.9813,interpolated,0.049,observed,-0.0142,observed,0.33,observed,2.11,observed,-4.3,observed,-3.85,observed,-2.3,observed,3.66,observed,-1,interpolated,2608,interpolated,2592,interpolated,83.63,interpolated,83.712452,interpolated,92.5,interpolated,92.5,interpolated,RUN,nearest,RUN,nearest
track,1,0,MU5735,KMG-CAN,B1791,B738,2022-03-21 14:17:17,2022-03-21T06:17:17Z,1647843437.000,110.385536,23.42448,29100,8869.679688,454,840.807983,-64,0,100,2101,nearest,0.928,2022-03-21 06:17:17Z.928,P,29100,454,99,-64,1,1647554687.600,288749.4,228.1391,2022-03-21 14:17:17,29108.7516,interpolated,453.5,interpolated,101.25,interpolated,2.46,interpolated,0.35,interpolated,-0.1,interpolated,-0.03885,interpolated,-0.06216,interpolated,0.9859,interpolated,0.049,observed,-0.0142,observed,0.33,observed,2.11,observed,-4.25,observed,-3.9,observed,-2.3,observed,3.71,observed,-1,interpolated,2608,interpolated,2592,interpolated,83.63,interpolated,83.75,interpolated,92.5,interpolated,92.5,interpolated,RUN,nearest,RUN,nearest
track,1,0,MU5735,KMG-CAN,B1791,B738,2022-03-21 14:17:18,2022-03-21T06:17:18Z,1647843438.000,110.38868,23.424,29100,8869.679688,454,840.807983,-64,0,100,2101,nearest,0.072,2022-03-21 06:17:17Z.928,P,29100,454,99,-64,1,1647554687.600,288750.4,227.1391,2022-03-21 14:17:18,29108,interpolated,453.5,interpolated,101.25,interpolated,2.64,interpolated,0.35,interpolated,-0.1,interpolated,-0.0625,interpolated,-0.1,interpolated,0.9882,interpolated,0.049,observed,-0.0142,observed,0.35,observed,2.11,observed,-4.3,observed,-3.9,observed,-2.34,observed,3.71,observed,-1,interpolated,,missing,2592,interpolated,,missing,83.75,interpolated,92.5,interpolated,92.5,interpolated,RUN,nearest,RUN,nearest
track,1,0,MU5735,KMG-CAN,B1791,B738,2022-03-21 14:17:19,2022-03-21T06:17:19Z,1647843439.000,110.389633,23.423861,29100,8869.679688,454,840.807983,-64,0,100,2101,none,,,,,,,,1,1647554687.600,288751.4,226.1391,2022-03-21 14:17:19,,missing,,missing,,missing,,missing,,missing,,missing,,missing,,missing,,missing,,missing,,missing,,missing,,missing,,missing,,missing,,missing,,missing,,missing,,missing,2592,interpolated,,missing,83.75,interpolated,92.5,interpolated,92.5,interpolated,RUN,nearest,RUN,nearest
track,1,0,MU5735,KMG-CAN,B1791,B738,2022-03-21 14:17:20,2022-03-21T06:17:20Z,1647843440.000,110.391853,23.4235,29100,8869.679688,454,840.807983,-64,0,100,2101,none,,,,,,,,1,1647554687.600,288752.4,225.1391,2022-03-21 14:17:20,,missing,,missing,,missing,,missing,,missing,,missing,,missing,,missing,0.995,interpolated,0.049,observed,-0.0142,observed,0.35,observed,2.46,observed,-4.25,observed,-3.85,observed,-2.34,observed,3.71,observed,,missing,,missing,2592,interpolated,,missing,83.75,interpolated,92.5,interpolated,92.5,interpolated,RUN,nearest,RUN,nearest
track,1,0,MU5735,KMG-CAN,B1791,B738,2022-03-21 14:17:21,2022-03-21T06:17:21Z,1647843441.000,110.394119,23.42313,29100,8869.679688,454,840.807983,-64,0,100,2101,none,,,,,,,,1,1647554687.600,288753.4,224.1391,2022-03-21 14:17:21,29103.7516,interpolated,453.5,interpolated,101.25,interpolated,2.64,interpolated,0.35,interpolated,-0.1,interpolated,-0.02365,interpolated,-0.03784,interpolated,0.9905,interpolated,0.049,observed,-0.0142,observed,0.37,observed,2.46,observed,-4.2,observed,-3.8,observed,-2.34,observed,3.71,observed,-1,interpolated,2608,interpolated,2592,interpolated,83.63,interpolated,83.75,interpolated,92.5,interpolated,92.5,interpolated,RUN,nearest,RUN,nearest
track,1,0,MU5735,KMG-CAN,B1791,B738,2022-03-21 14:17:22,2022-03-21T06:17:22Z,1647843442.000,110.39724,23.422621,29100,8869.679688,454,840.807983,-64,0,100,2101,none,,,,,,,,1,1647554687.600,288754.4,223.1391,2022-03-21 14:17:22,29102.2484,interpolated,453.5,interpolated,101.25,interpolated,2.64,interpolated,0.35,interpolated,-0.1,interpolated,0,interpolated,0,interpolated,0.996454,interpolated,0.051,observed,-0.0142,observed,0.35,observed,2.46,observed,-4.25,observed,-3.85,observed,-2.39,observed,3.76,observed,-1,interpolated,2610.587202,interpolated,2602.587202,interpolated,83.652452,interpolated,83.75,interpolated,92.5,interpolated,92.5,interpolated,RUN,nearest,RUN,nearest
track,1,0,MU5735,KMG-CAN,B1791,B738,2022-03-21 14:17:23,2022-03-21T06:17:23Z,1647843443.000,110.399071,23.42234,29100,8869.679688,454,840.807983,-64,0,100,2101,none,,,,,,,,1,1647554687.600,288755.4,222.1391,2022-03-21 14:17:23,29102,interpolated,453.5,interpolated,101.6,interpolated,2.64,interpolated,0.35,interpolated,-0.1,interpolated,0,interpolated,0,interpolated,0.991954,interpolated,0.051,observed,-0.0142,observed,0.35,observed,2.46,observed,-4.25,observed,-3.85,observed,-2.39,observed,3.76,observed,-1,interpolated,2624,interpolated,2608,interpolated,83.75,interpolated,83.839323,interpolated,92.5,interpolated,92.5,interpolated,RUN,nearest,RUN,nearest
track,1,0,MU5735,KMG-CAN,B1791,B738,2022-03-21 14:17:24,2022-03-21T06:17:24Z,1647843444.000,110.401756,23.421869,29100,8869.679688,454,840.807983,-64,0,100,2101,none,,,,,,,,1,1647554687.600,288756.4,221.1391,2022-03-21 14:17:24,29101.2484,interpolated,453.5,interpolated,101.6,interpolated,2.64,interpolated,0.35,interpolated,-0.1,interpolated,-0.03885,interpolated,-0.06216,interpolated,0.995,interpolated,0.051,observed,-0.0142,observed,0.35,observed,2.46,observed,-4.25,observed,-3.8,observed,-2.39,observed,3.76,observed,-1,interpolated,2624,interpolated,2608,interpolated,83.75,interpolated,83.88,interpolated,92.5,interpolated,92.5,interpolated,RUN,nearest,RUN,nearest
track,1,0,MU5735,KMG-CAN,B1791,B738,2022-03-21 14:17:25,2022-03-21T06:17:25Z,1647843445.000,110.403542,23.421591,29100,8869.679688,454,840.807983,-64,0,100,2101,none,,,,,,,,1,1647554687.600,288757.4,220.1391,2022-03-21 14:17:25,29101.7516,interpolated,453.5,interpolated,101.6,interpolated,2.64,interpolated,0.35,interpolated,0,interpolated,-0.0625,interpolated,-0.1,interpolated,0.99419,interpolated,0.049,observed,-0.0142,observed,0.35,observed,2.46,observed,-4.25,observed,-3.85,observed,-2.34,observed,3.76,observed,-1,interpolated,2624,interpolated,2608,interpolated,83.75,interpolated,83.88,interpolated,92.5,interpolated,92.5,interpolated,RUN,nearest,RUN,nearest
track,1,0,MU5735,KMG-CAN,B1791,B738,2022-03-21 14:17:26,2022-03-21T06:17:26Z,1647843446.000,110.405807,23.421249,29100,8869.679688,454,840.807983,0,0,100,2101,none,,,,,,,,1,1647554687.600,288758.4,219.1391,2022-03-21 14:17:26,29099.2484,interpolated,453.5,interpolated,101.6,interpolated,2.64,interpolated,0.35,interpolated,-0.1,interpolated,0,interpolated,0,interpolated,0.9928,interpolated,0.051,observed,-0.0142,observed,0.33,observed,2.46,observed,-4.3,observed,-3.85,observed,-2.39,observed,3.76,observed,-1,interpolated,,missing,2608,interpolated,,missing,83.790677,interpolated,92.5,interpolated,92.5,interpolated,RUN,nearest,RUN,nearest
track,1,0,MU5735,KMG-CAN,B1791,B738,2022-03-21 14:17:27,2022-03-21T06:17:27Z,1647843447.000,110.408073,23.420851,29100,8869.679688,454,840.807983,0,0,100,2101,none,,,,,,,,1,1647554687.600,288759.4,218.1391,2022-03-21 14:17:27,,missing,,missing,,missing,,missing,,missing,,missing,,missing,,missing,,missing,,missing,,missing,,missing,,missing,,missing,,missing,,missing,,missing,,missing,,missing,2608,interpolated,,missing,83.794662,interpolated,92.5,interpolated,92.5,interpolated,RUN,nearest,RUN,nearest
track,1,0,MU5735,KMG-CAN,B1791,B738,2022-03-21 14:17:28,2022-03-21T06:17:28Z,1647843448.000,110.410301,23.420521,29100,8869.679688,454,840.807983,0,0,100,2101,none,,,,,,,,1,1647554687.600,288760.4,217.1391,2022-03-21 14:17:28,,missing,,missing,,missing,,missing,,missing,,missing,,missing,,missing,0.989046,interpolated,0.049,observed,-0.0142,observed,0.33,observed,2.46,observed,-4.25,observed,-3.85,observed,-2.39,observed,3.81,observed,,missing,,missing,2608,interpolated,,missing,83.859662,interpolated,92.5,interpolated,92.5,interpolated,RUN,nearest,RUN,nearest
track,1,0,MU5735,KMG-CAN,B1791,B738,2022-03-21 14:17:29,2022-03-21T06:17:29Z,1647843449.000,110.412552,23.420151,29100,8869.679688,454,840.807983,0,0,100,2101,none,,,,,,,,1,1647554687.600,288761.4,216.1391,2022-03-21 14:17:29,29100,interpolated,453.5,interpolated,101.25,interpolated,2.64,interpolated,0.35,interpolated,-0.05592,interpolated,-0.0625,interpolated,-0.1,interpolated,0.9928,interpolated,0.049,observed,-0.0142,observed,0.33,observed,2.46,observed,-4.3,observed,-3.85,observed,-2.39,observed,3.76,observed,-1,interpolated,2624,interpolated,2608,interpolated,83.75,interpolated,83.88,interpolated,92.5,interpolated,92.5,interpolated,RUN,nearest,RUN,nearest
track,1,0,MU5735,KMG-CAN,B1791,B738,2022-03-21 14:17:30,2022-03-21T06:17:30Z,1647843450.000,110.414787,23.419781,29100,8869.679688,454,840.807983,0,0,100,2101,none,,,,,,,,1,1647554687.600,288762.4,215.1391,2022-03-21 14:17:30,29101,interpolated,453.5,interpolated,101.25,interpolated,2.64,interpolated,0.267924,interpolated,-0.1,interpolated,-0.03885,interpolated,-0.06216,interpolated,0.9882,interpolated,0.049,observed,-0.0142,observed,0.35,observed,2.81,observed,-4.25,observed,-3.85,observed,-2.44,observed,3.86,observed,-1,interpolated,2624,interpolated,2608,interpolated,83.774323,interpolated,83.88,interpolated,92.5,interpolated,92.5,interpolated,RUN,nearest,RUN,nearest
track,1,0,MU5735,KMG-CAN,B1791,B738,2022-03-21 14:17:31,2022-03-21T06:17:31Z,1647843451.000,110.416641,23.41951,29100,8869.679688,454,840.807983,0,0,100,2101,none,,,,,,,,1,1647554687.600,288763.4,214.1391,2022-03-21 14:17:31,29101,interpolated,453.5,interpolated,101.25,interpolated,2.64,interpolated,0.18,interpolated,-0.1,interpolated,-0.03885,interpolated,-0.06216,interpolated,0.989046,interpolated,0.049,observed,-0.0142,observed,0.35,observed,2.81,observed,-4.25,observed,-3.85,observed,-2.49,observed,3.86,observed,-1,interpolated,2624,interpolated,2608,interpolated,83.855677,interpolated,83.88,interpolated,92.5,interpolated,92.5,interpolated,RUN,nearest,RUN,nearest
track,1,0,MU5735,KMG-CAN,B1791,B738,2022-03-21 14:17:32,2022-03-21T06:17:32Z,1647843452.000,110.419342,23.41905,29100,8869.679688,454,840.807983,0,0,100,2101,none,,,,,,,,1,1647554687.600,288764.4,213.1391,2022-03-21 14:17:32,29101,interpolated,453.5,interpolated,101.25,interpolated,2.64,interpolated,0.18,interpolated,-0.1,interpolated,-0.03885,interpolated,-0.06216,interpolated,0.996693,interpolated,0.051,observed,-0.0142,observed,0.35,observed,3.16,observed,-4.3,observed,-3.85,observed,-2.49,observed,3.86,observed,-1,interpolated,2624,interpolated,2597.412798,interpolated,83.75,interpolated,83.88,interpolated,92.5,interpolated,92.5,interpolated,RUN,nearest,RUN,nearest
track,1,0,MU5735,KMG-CAN,B1791,B738,2022-03-21 14:17:33,2022-03-21T06:17:33Z,1647843453.000,110.421547,23.418711,29100,8869.679688,454,840.807983,0,0,100,2101,none,,,,,,,,1,1647554687.600,288765.4,212.1391,2022-03-21 14:17:33,29100.7516,interpolated,453.5,interpolated,101.25,interpolated,2.64,interpolated,0.18,interpolated,-0.15592,interpolated,0,interpolated,0,interpolated,0.989654,interpolated,0.049,observed,-0.0162,observed,0.35,observed,3.52,observed,-4.3,observed,-3.9,observed,-2.64,observed,4,observed,-1,interpolated,2624,interpolated,2602.587202,interpolated,83.75,interpolated,83.88,interpolated,92.5,interpolated,92.5,interpolated,RUN,nearest,RUN,nearest
track,1,0,MU5735,KMG-CAN,B1791,B738,2022-03-21 14:17:34,2022-03-21T06:17:34Z,1647843454.000,110.423378,23.418381,29100,8869.679688,454,840.807983,0,0,100,2101,none,,,,,,,,1,1647554687.600,288766.4,211.1391,2022-03-21 14:17:34,29101,interpolated,453.5,interpolated,101.25,interpolated,2.64,interpolated,0.18,interpolated,0.1,interpolated,-0.0625,interpolated,-0.1,interpolated,0.989654,interpolated,0.049,observed,-0.0142,observed,0.31,observed,3.16,observed,-4.3,observed,-3.9,observed,-2.54,observed,3.91,observed,-1,interpolated,,missing,2618.587202,interpolated,,missing,83.88,interpolated,92.5,interpolated,92.5,interpolated,RUN,nearest,RUN,nearest
track,1,0,MU5735,KMG-CAN,B1791,B738,2022-03-21 14:17:35,2022-03-21T06:17:35Z,1647843455.000,110.426529,23.41791,29100,8869.679688,454,840.807983,0,0,100,2101,none,,,,,,,,1,1647554687.600,288767.4,210.1391,2022-03-21 14:17:35,,missing,,missing,,missing,,missing,,missing,,missing,,missing,,missing,,missing,,missing,,missing,,missing,,missing,,missing,,missing,,missing,,missing,,missing,,missing,2618.706399,interpolated,,missing,83.88,interpolated,92.5,interpolated,92.5,interpolated,RUN,nearest,RUN,nearest
